StnID,Lat,Lon,Elev,State/Province,Name,WMO_ID,Sample_Interval (min),UTC_Offset,POR_Date_Range,PCT_POR_Good,Last_Half_POR,PCT_Last_Half_Good,Last_Qtr_POR,PCT_Last_Qtr_Good
USC00010008,31.5702,-85.2482,139.0,AL,ABBEVILLE,,15,-6,19480601-20180418, 83.6%,19830510-20180418, 70.2%,20001028-20180418, 65.8%
USC00010063,34.2110,-87.1784,239.6,AL,ADDISON,,15,-6,19480601-20240416, 84.6%,19860509-20240416, 80.4%,20050427-20240416, 71.5%
USC00010140,32.2322,-87.4104,53.3,AL,ALBERTA,,15,-6,19630926-20240403, 94.6%,19931229-20240403, 92.2%,20090214-20240403, 90.4%
USC00010252,31.3071,-86.5226,76.2,AL,ANDALUSIA 3 W,,15,-6,19800301-20180205, 89.1%,19990217-20180205, 92.3%,20080812-20180205, 97.5%
USC00010369,33.2941,-85.7788,311.5,AL,ASHLAND 3 ENE,,15,-6,19480601-20130804, 84.6%,19810101-20130804, 81.4%,19970418-20130804, 70.7%
USC00010370,33.2015,-85.8687,301.1,AL,ASHLAND 5 SSW,,15,-6,20231207-20240408, 98.4%,20240206-20240408, 98.4%,20240308-20240408, 96.9%
USC00010390,34.7752,-86.9508,210.0,AL,ATHENS,,15,-6,19820601-20240304, 84.5%,20030418-20240304, 93.1%,20130925-20240304, 98.8%
USC00010402,31.1820,-87.4390,91.4,AL,ATMORE,,15,-6,19480601-20240401, 64.4%,19860502-20240401, 84.9%,20050416-20240401, 95.8%
USC00010425,32.5992,-85.4653,166.1,AL,AUBURN NO.2,,15,-6,20001201-20240401, 85.3%,20120801-20240401, 98.4%,20180601-20240401, 97.1%
USC00010748,33.6971,-87.6488,150.3,AL,BERRY 3 NW,,15,-6,19480601-20240403, 79.6%,19860503-20240403, 81.6%,20050418-20240403, 87.8%
USC00010957,34.2008,-86.1633,326.1,AL,BOAZ,,15,-6,19480601-20240304, 82.8%,19860418-20240304, 75.2%,20050326-20240304, 92.5%
USC00011099,34.9809,-85.8101,203.3,AL,BRIDGEPORT 5 NW,,15,-6,19821101-20240301, 88.1%,20030702-20240301, 94.1%,20131031-20240301, 97.4%
USC00012124,32.8603,-85.7475,222.2,AL,DADEVILLE 2,,15,-6,19480601-20240404, 88.2%,19860503-20240404, 81.6%,20050418-20240404, 77.2%
USC00012172,30.2505,-88.0775,2.4,AL,DAUPHIN ISLAND #2,,15,-6,19750801-20240406, 91.9%,19991203-20240406, 88.7%,20120203-20240406, 90.4%
USC00012377,31.2833,-85.4000,95.1,AL,DOTHAN 4 NW,,15,-6,19520401-20240401, 84.4%,19880401-20240401, 82.2%,20060401-20240401, 83.0%
USC00012675,31.2970,-85.8900,102.7,AL,ENTERPRISE 4 W,,15,-6,19710401-20240402, 81.3%,19971001-20240402, 76.6%,20110101-20240402, 81.3%
USC00013043,34.4406,-85.7236,279.5,AL,FORT PAYNE,,15,-6,19480601-20240307, 85.8%,19860419-20240307, 85.5%,20050328-20240307, 97.5%
USC00013519,31.7901,-86.6087,104.2,AL,GREENVILLE,,15,-6,19710901-20240402, 89.1%,19971216-20240402, 84.3%,20110208-20240402, 95.0%
USC00013620,34.2314,-87.6352,280.4,AL,HALEYVILLE,,15,-6,19480601-20240417, 85.9%,19860510-20240417, 79.9%,20050428-20240417, 84.2%
USC00013645,34.1388,-87.9947,149.4,AL,HAMILTON,,15,-6,19671103-20240402, 80.9%,19960117-20240402, 79.6%,20100223-20240402, 87.2%
USC00014193,31.5253,-87.9277,67.1,AL,JACKSON,,15,-6,19611023-20240401, 81.9%,19930111-20240401, 87.3%,20080821-20240401, 95.4%
USC00014209,33.8259,-85.7812,192.0,AL,JACKSONVILLE,,15,-6,19480601-20240403, 83.2%,19860503-20240403, 74.0%,20050418-20240403, 88.3%
USC00015397,32.0347,-85.4740,125.6,AL,MIDWAY,,15,-6,19480601-20240401, 83.9%,19860502-20240401, 78.5%,20050416-20240401, 69.3%
USC00015553,32.2600,-86.2180,68.6,AL,MONTGOMERY 6SW,,15,-6,19980331-20240401, 89.3%,20110401-20240401, 97.2%,20170930-20240401, 98.4%
USC00018178,31.9172,-87.7347,118.9,AL,THOMASVILLE,,15,-6,19671102-20140313, 93.5%,19910106-20140313, 93.4%,20020809-20140313, 94.5%
USC00018209,32.9205,-86.6708,207.3,AL,THORSBY EXP STATION,,15,-6,19700301-20240425, 89.7%,19970328-20240425, 90.2%,20101011-20240425, 89.4%
USC00018325,31.8351,-85.9329,168.9,AL,TROY #2,,15,-6,20120510-20230814, 96.4%,20171226-20230814, 99.3%,20201019-20230814, 99.7%
USC00018385,33.2108,-87.5932,44.2,AL,TUSCALOOSA OLIVER DAM,,15,-6,19580113-20240330, 71.7%,19910220-20240330, 64.4%,20070910-20240330, 85.7%
USC00018517,33.7418,-88.1251,90.5,AL,VERNON,,15,-6,19480601-20240425, 83.8%,19860514-20240425, 77.2%,20050504-20240425, 85.1%
USC00018670,33.7953,-86.8258,152.4,AL,WARRIOR,,15,-6,19720425-20240417, 79.1%,19980421-20240417, 83.2%,20110419-20240417, 90.4%
USC00018673,32.7747,-87.8306,33.5,AL,WARRIOR LOCK AND DAM,,15,-6,19571204-20240403, 84.2%,19910202-20240403, 82.0%,20070903-20240403, 87.3%
USC00020080,32.3698,-112.8599,533.7,AZ,AJO,,15,-7,19480701-20240301, 90.0%,19860501-20240301, 83.0%,20050331-20240301, 74.6%
USC00020487,35.1989,-112.4886,1546.9,AZ,ASH FORK 3,,15,-7,19480701-20240304, 88.7%,19860503-20240304, 85.8%,20050403-20240304, 86.0%
USC00020808,33.4783,-109.7516,1848.6,AZ,BLACK RIVER PUMPS,,15,-7,19480701-20240304, 84.5%,19860503-20240304, 75.8%,20050403-20240304, 74.3%
USC00021574,34.5397,-110.9155,2135.4,AZ,CHEVELON RANGER STATION,,15,-7,19820201-20240309, 85.1%,20030219-20240309, 86.8%,20130829-20240309, 99.4%
USC00021749,34.0500,-110.4500,1617.0,AZ,CIBECUE,,15,-7,19800701-20240213, 69.3%,20020423-20240213, 77.7%,20130319-20240213, 88.4%
USC00021870,32.0588,-109.8908,1274.1,AZ,COCHISE 4 SSE,,15,-7,19480701-20240403, 84.8%,19860518-20240403, 74.9%,20050425-20240403, 62.1%
USC00022329,34.2051,-112.3419,1804.4,AZ,CROWN KING,,15,-7,19800601-20240302, 80.8%,20020417-20240302, 78.2%,20130325-20240302, 93.8%
USC00022754,32.7480,-109.1213,1115.6,AZ,DUNCAN,,15,-7,19750828-20240405, 80.4%,19991216-20240405, 70.2%,20120209-20240405, 81.1%
USC00023009,35.1611,-111.7311,2171.7,AZ,FLAGSTAFF 4 SW,,15,-7,20030317-20240303, 68.8%,20130908-20240303, 97.1%,20181205-20240303, 95.2%
USC00024534,31.8352,-110.3552,1429.5,AZ,KARTCHNER CAVERNS,,15,-7,20100302-20240401, 86.0%,20170317-20240401, 97.7%,20200923-20240401, 98.8%
USC00024586,35.8109,-110.1932,1891.3,AZ,KEAMS CANYON,,15,-7,19480701-20160817, 84.4%,19820725-20160817, 78.9%,19990806-20160817, 77.5%
USC00025344,34.3709,-112.1827,1252.1,AZ,MAYER NO. 2,,15,-7,19861201-20240304, 85.0%,20050718-20240304, 86.1%,20141110-20240304, 92.5%
USC00025635,34.6106,-111.8382,969.3,AZ,MONTEZUMA CASTLE NATIONAL MONUMENT,,15,-7,19790719-20240223, 87.1%,20011105-20240223, 81.1%,20121229-20240223, 90.4%
USC00025924,31.4554,-110.9680,1054.9,AZ,NOGALES 6 N,,15,-7,19830902-20240402, 81.6%,20031217-20240402, 72.2%,20140208-20240402, 95.7%
USC00026037,34.9599,-111.7553,1560.0,AZ,OAK CREEK CANYON,,15,-7,20160814-20240326, 79.9%,20200604-20240326, 70.1%,20220430-20240326, 99.9%
USC00026117,32.6100,-110.7317,1400.6,AZ,ORACLE STATE PARK,,15,-7,20130815-20240403, 94.6%,20181209-20240403, 99.1%,20210806-20240403, 99.7%
USC00026119,32.6025,-110.7344,1374.6,AZ,ORACLE 2 SE,,15,-7,19500224-20100407, 84.4%,19800316-20100407, 77.4%,19950327-20100407, 60.9%
USC00026468,34.7994,-109.8850,1659.9,AZ,PETRIFIED FOREST NP,,15,-7,19480701-20231016, 88.0%,19860222-20231016, 83.3%,20041219-20231016, 88.0%
USC00027708,34.8955,-111.7644,1286.3,AZ,SEDONA,,15,-7,19730412-20100901, 85.6%,19911222-20100901, 82.1%,20010427-20100901, 84.4%
USC00027876,33.7986,-110.9714,1554.5,AZ,SIERRA ANCHA,,15,-7,19760101-20240223, 79.7%,20000127-20240223, 72.9%,20120209-20240223, 81.6%
USC00029158,34.9281,-112.8097,1551.4,AZ,WALNUT CREEK,,15,-7,19790720-20240301, 84.5%,20011109-20240301, 88.7%,20130104-20240301, 96.0%
USC00029271,33.8215,-109.9840,1575.8,AZ,WHITERIVER 1 SW,,15,-7,19480701-20110920, 90.6%,19800209-20110920, 84.1%,19951130-20110920, 80.2%
USC00030064,35.9307,-91.0550,78.6,AR,ALICIA 2NNE,,15,-6,19480529-20240303, 88.3%,19860416-20240303, 86.5%,20050325-20240303, 95.1%
USC00030130,34.7961,-92.8417,212.8,AR,ALUM FORK,,15,-6,19480501-20240301, 91.5%,19860401-20240301, 89.9%,20050316-20240301, 94.4%
USC00030178,34.0275,-93.4332,91.4,AR,ANTOINE 1 SW,,15,-6,19500810-20240206, 86.3%,19870509-20240206, 78.8%,20050922-20240206, 79.8%
USC00030220,34.1433,-93.0589,59.7,AR,ARKADELPHIA 2 N,,15,-6,19480501-20231104, 91.7%,19860201-20231104, 85.0%,20041218-20231104, 76.1%
USC00030326,35.2894,-91.3533,59.4,AR,AUGUSTA,,15,-6,19480501-20240301, 87.1%,19860401-20240301, 86.3%,20050316-20240301, 92.0%
USC00030458,35.8306,-91.7944,174.0,AR,BATESVILLE LVSTK,,15,-6,19490801-20240305, 94.2%,19861117-20240305, 94.7%,20050711-20240305, 96.1%
USC00030530,35.0644,-91.8961,76.2,AR,BEEBE,,15,-6,19480501-20240209, 87.0%,19860321-20240209, 89.0%,20050228-20240209, 90.4%
USC00030616,36.4130,-93.6462,338.3,AR,BERRYVILLE 6 NW,,15,-6,19480501-20141126, 94.5%,19810813-20141126, 91.4%,19980405-20141126, 86.9%
USC00030764,34.5697,-93.1947,129.8,AR,BLAKELY MOUNTAIN DAM,,15,-6,19500501-20240304, 88.0%,19870402-20240304, 83.3%,20050917-20240304, 89.4%
USC00030798,35.1161,-93.6506,129.8,AR,BLUE MOUNTAIN DAM,,15,-6,19480501-20240304, 95.8%,19860402-20240304, 93.5%,20050318-20240304, 95.7%
USC00030832,35.0971,-93.9147,171.9,AR,BOONEVILLE 3 SSE,,15,-6,19780406-20230927, 88.3%,20001231-20230927, 83.5%,20120514-20230927, 81.5%
USC00030842,35.7264,-92.4672,387.4,AR,BOTKINBURG 3 NE,,15,-6,19480501-20240301, 86.4%,19860401-20240301, 79.1%,20050316-20240301, 85.2%
USC00030900,34.9458,-93.4637,140.2,AR,BRIGGSVILLE,,15,-6,19851101-20181023, 82.8%,20020428-20181023, 76.3%,20100726-20181023, 63.5%
USC00030936,34.8822,-91.2152,56.4,AR,BRINKLEY,,15,-6,19480501-20170922, 90.6%,19830111-20170922, 85.8%,20000517-20170922, 82.4%
USC00031020,36.3647,-92.5781,146.3,AR,BULL SHOALS DAM,,15,-6,19480501-20240304, 90.2%,19860402-20240304, 84.6%,20050318-20240304, 75.5%
USC00031140,33.3053,-92.4866,29.0,AR,CALION LOCK & DAM,,15,-6,19851001-20240306, 78.8%,20041218-20240306, 72.4%,20140728-20240306, 82.5%
USC00031152,33.5900,-92.8236,35.4,AR,CAMDEN 1,,15,-6,19660427-20240226, 80.0%,19950328-20240226, 68.6%,20090911-20240226, 51.1%
USC00031457,35.5328,-93.4036,259.1,AR,CLARKSVILLE 6 NE,,15,-6,19611201-20240301, 89.4%,19930115-20240301, 84.2%,20080808-20240301, 95.0%
USC00031582,36.0913,-93.3208,648.9,AR,COMPTON,,15,-6,19480501-20240302, 91.0%,19860401-20240302, 86.0%,20050317-20240302, 87.3%
USC00031632,36.4083,-90.5917,75.0,AR,CORNING,,15,-6,19480501-20240404, 82.0%,19860418-20240404, 78.8%,20050411-20240404, 81.6%
USC00031948,34.0463,-94.3480,124.1,AR,DEQUEEN,,15,-6,20080310-20240226, 84.1%,20160303-20240226, 95.8%,20200229-20240226, 97.1%
USC00031952,34.1002,-94.3724,169.8,AR,DE QUEEN DAM,,15,-6,19730503-20080205, 89.2%,19900919-20080205, 81.9%,19990529-20080205, 79.7%
USC00032015,34.1266,-94.0172,143.3,AR,DIERKS,,15,-6,20051220-20240320, 83.1%,20150203-20240320, 96.7%,20190827-20240320, 98.1%
USC00032148,33.8885,-91.5316,49.7,AR,DUMAS,,15,-6,19610201-20240313, 81.9%,19920822-20240313, 67.3%,20080602-20240313, 48.0%
USC00032356,36.4163,-93.7916,432.8,AR,EUREKA SPRINGS 3 WNW,,15,-6,19490701-20120925, 96.4%,19810211-20120925, 95.2%,19961203-20120925, 92.4%
USC00032444,36.1010,-94.1737,387.1,AR,FAYETTEVILLE EXP STA,,15,-6,19660413-20240404, 87.3%,19950409-20240404, 80.5%,20091006-20240404, 86.1%
USC00032489,34.7594,-92.4553,150.0,AR,FERNDALE 6 E,,15,-6,19810504-20240209, 90.8%,20020921-20240209, 94.3%,20130531-20240209, 94.3%
USC00032544,33.7222,-94.3975,128.9,AR,FOREMAN,,15,-6,19480501-20240202, 83.8%,19860318-20240202, 81.9%,20050223-20240202, 79.9%
USC00032794,35.9885,-92.7161,184.7,AR,GILBERT,,15,-6,19480501-20240206, 95.2%,19860320-20240206, 92.9%,20050226-20240206, 93.9%
USC00032978,35.5206,-91.9997,160.6,AR,GREERS FERRY DAM,,15,-6,19650201-20240304, 95.6%,19940818-20240304, 94.8%,20090526-20240304, 97.2%
USC00033132,36.2747,-91.5056,121.9,AR,HARDY,,15,-6,19480501-20240110, 73.1%,19860306-20240110, 69.7%,20050206-20240110, 57.3%
USC00033544,36.0700,-93.7522,543.5,AR,HUNTSVILLE 1 SSW,,15,-6,19830501-20120925, 90.1%,19980112-20120925, 88.6%,20050520-20120925, 90.0%
USC00034185,33.3613,-93.5674,103.6,AR,LEWISVILLE,,15,-6,19910401-20240302, 89.9%,20070916-20240302, 85.1%,20151209-20240302, 96.3%
USC00034548,33.2586,-93.1822,113.4,AR,MAGNOLIA,,15,-6,19480501-20240314, 52.7%,19860407-20240314, 77.1%,20050326-20240314, 81.5%
USC00034756,34.5979,-94.2900,351.1,AR,MENA,,15,-6,19480501-20240303, 94.5%,19860402-20240303, 91.2%,20050318-20240303, 93.7%
USC00034839,33.6772,-93.9902,96.3,AR,MILLWOOD DAM,,15,-6,19630711-20210921, 84.0%,19920815-20210921, 74.0%,20070304-20210921, 66.6%
USC00035110,34.1452,-93.7138,132.6,AR,NARROWS DAM,,15,-6,19500501-20231130, 86.8%,19870214-20231130, 81.1%,20050708-20231130, 79.0%
USC00035112,33.9293,-93.8507,121.9,AR,NASHVILLE,,15,-6,19660301-20240301, 89.9%,19950301-20240301, 81.9%,20090830-20240301, 78.7%
USC00035200,34.9553,-93.1594,146.3,AR,NIMROD DAM,,15,-6,19480501-20240201, 91.5%,19860317-20240201, 85.6%,20050222-20240201, 91.6%
USC00035228,36.2494,-92.2383,129.5,AR,NORFORK DAM,,15,-6,19480501-20240130, 90.4%,19860316-20240130, 85.1%,20050221-20240130, 77.5%
USW00003952,34.8353,-92.2596,171.6,AR,NORTH LITTLE ROCK WFO,72340,15,-6,19760101-20240301, 97.9%,20000131-20240301, 95.9%,20120215-20240301, 93.7%
USC00035602,35.9547,-93.2405,274.3,AR,PARTHENON,,15,-6,19480501-20150901, 88.4%,19811231-20150901, 79.2%,19981031-20150901, 81.4%
USC00035754,34.2255,-92.0185,70.1,AR,PINE BLUFF,,15,-6,19530101-20240304, 88.7%,19880802-20240304, 80.9%,20060519-20240304, 76.9%
USC00035908,33.8204,-93.3879,93.9,AR,PRESCOTT 2 NNW,,15,-6,19820801-20231003, 76.1%,20030303-20231003, 58.3%,20130617-20231003, 67.5%
USC00036393,35.8236,-93.7672,423.7,AR,ST. PAUL 1 E,,15,-6,19880301-20200402, 81.4%,20040317-20200402, 86.5%,20120325-20200402, 80.7%
USC00036403,36.3561,-91.8036,207.3,AR,SALEM,,15,-6,19870901-20120602, 41.4%,20000116-20120602, 16.0%,20060325-20120602,  1.3%
USC00036405,36.4261,-91.9158,274.3,AR,SALEM NO 2,,15,-6,20020401-20240301, 82.6%,20130316-20240301, 78.7%,20180907-20240301, 66.3%
USC00036920,34.4744,-91.4172,60.4,AR,STUTTGART 9 ESE,,15,-6,19480601-20240219, 95.1%,19860411-20240219, 92.1%,20050316-20240219, 93.7%
USC00037488,34.9229,-94.0944,218.2,AR,WALDRON,,15,-6,19480501-20240301, 87.9%,19860401-20240301, 76.9%,20050316-20240301, 75.4%
USC00038052,35.2547,-90.7965,79.2,AR,WYNNE,,15,-6,19790613-20240401, 89.1%,20011106-20240401, 87.6%,20130118-20240401, 93.8%
USC00040010,38.2177,-121.2013,26.5,CA,ACAMPO 5NE,,15,-8,20220222-20220602,100.0%,20220413-20220602, 98.0%,20220508-20220602, 96.2%
USC00040161,41.4902,-120.5438,1332.9,CA,ALTURAS,,15,-8,19480701-20240122, 91.3%,19860412-20240122, 86.3%,20050302-20240122, 75.9%
USC00040212,38.5730,-122.4405,522.7,CA,ANGWIN PACIFIC UNION COLLEGE,,15,-8,19671103-20240411, 87.7%,19960122-20240411, 90.1%,20100302-20240411, 91.6%
USC00040321,35.1844,-120.3980,282.5,CA,ARROYO GRANDE 11 ENE,,15,-8,19940107-20240419, 89.7%,20090227-20240419, 92.1%,20160923-20240419, 98.1%
USC00040322,36.2355,-121.4800,286.5,CA,ARROYO SECO,,15,-8,19481201-20180501, 88.1%,19830816-20180501, 82.2%,20001222-20180501, 92.0%
USC00040449,36.9092,-119.0883,528.8,CA,BALCH POWER HOUSE,,15,-8,19500201-20230101, 88.4%,19860718-20230101, 80.9%,20041009-20230101, 83.4%
USC00040546,40.3983,-122.1452,128.0,CA,BATTLE CREEK ADR,,15,-8,19710701-20240401, 85.3%,19971115-20240401, 84.9%,20110123-20240401, 96.1%
USC00040731,41.1208,-121.1347,1257.3,CA,BIEBER,,15,-8,19480701-20240402, 84.0%,19860517-20240402, 73.9%,20050424-20240402, 89.2%
USC00040742,34.2414,-116.9751,2077.2,CA,BIG BEAR LAKE DAM,,15,-8,19480701-20221122, 79.0%,19850911-20221122, 70.0%,20040417-20221122, 63.8%
USC00040790,36.2472,-121.7802,61.0,CA,BIG SUR STATION,,15,-8,19961202-20240401, 80.5%,20100802-20240401, 87.0%,20170601-20240401, 77.3%
USC00040883,38.9091,-120.6677,1345.4,CA,BLODGETT EXPER FOREST,,15,-8,19691001-20240403, 91.1%,19970101-20240403, 94.7%,20100818-20240403, 96.5%
USC00041005,37.1422,-122.1963,662.9,CA,BOULDER CR LOCAT RCH,,15,-8,19480701-20240402, 94.6%,19860517-20240402, 94.1%,20050424-20240402, 93.8%
USC00041018,39.4539,-120.6556,1641.3,CA,BOWMAN DAM,,15,-8,19480701-20160601, 85.0%,19820616-20160601, 79.7%,19990609-20160601, 77.1%
USC00041076,38.2505,-119.2161,1963.2,CA,BRIDGEPORT R.S.,,15,-8,19500609-20240404, 68.8%,19870507-20240404, 62.7%,20051020-20240404, 70.9%
USC00041130,39.6949,-121.3452,1085.1,CA,BRUSH CREEK RANGER STATION,,15,-8,19480701-20240403, 80.7%,19860518-20240403, 80.4%,20050425-20240403, 91.1%
USC00041142,35.7989,-121.0939,281.9,CA,BRYSON,,15,-8,19480701-20231202, 90.4%,19860317-20231202, 83.6%,20050123-20231202, 84.0%
USC00041194,34.1866,-118.3480,199.6,CA,BURBANK VALLEY PUMP PLANT,,15,-8,19480701-20240401, 93.3%,19860517-20240401, 88.1%,20050424-20240401, 91.4%
USC00041272,34.3899,-117.5758,1463.0,CA,CAJON WEST SUMMIT,,15,-8,19480701-20221117, 81.5%,19850908-20221117, 67.2%,20040413-20221117, 56.2%
USC00041277,38.2769,-120.3113,1431.0,CA,CALAVERAS BIG TREES,,15,-8,19860710-20240413, 87.5%,20050527-20240413, 93.5%,20141104-20240413, 91.3%
USC00041369,34.1491,-116.9802,1758.7,CA,CAMP ANGELUS,,15,-8,19480701-20221123, 86.0%,19850911-20221123, 80.4%,20040417-20221123, 65.6%
USC00041428,38.2486,-120.8433,200.6,CA,CAMP PARDEE,,15,-8,19480701-20240403, 96.2%,19860518-20240403, 94.7%,20050425-20240403, 96.0%
USC00041460,39.4397,-121.0712,762.0,CA,CAMPTONVILLE 1SW,,15,-8,19950210-20240416, 94.2%,20090913-20240416, 98.7%,20161229-20240416, 99.7%
USC00041497,40.1705,-121.0886,1389.9,CA,CANYON DAM,,15,-8,19751017-20240402, 88.2%,20000109-20240402, 87.5%,20120220-20240402, 96.3%
USC00041715,39.6911,-121.8211,56.4,CA,CHICO UNIVERSITY FARM,,15,-8,19480701-20240402, 92.2%,19860517-20240402, 93.0%,20050424-20240402, 96.5%
USC00041864,36.1356,-120.3606,204.2,CA,COALINGA,,15,-8,19480701-20210801, 49.8%,19850115-20210801, 78.5%,20030424-20210801, 77.9%
USC00041886,41.0894,-122.7086,762.9,CA,COFFEE CREEK RS,,15,-8,19601109-20240325, 83.2%,19920717-20240325, 73.6%,20080521-20240325, 81.3%
USC00042012,36.0975,-119.5817,61.0,CA,CORCORAN IRRIGATION DIST.,,15,-8,19560119-20240325, 86.7%,19900220-20240325, 75.0%,20070309-20240325, 69.5%
USC00042048,36.9897,-121.8050,82.3,CA,CORRALITOS,,15,-8,19580415-20211004, 75.8%,19900108-20211004, 81.9%,20051121-20211004, 76.7%
USC00042084,39.8261,-123.0850,462.4,CA,COVELO EEL RIVER RS,,15,-8,19480701-20230829, 78.1%,19860129-20230829, 68.0%,20041113-20230829, 66.2%
USC00042164,34.2393,-117.2988,1484.4,CA,CRESTLINE,,15,-8,19660418-20221123, 75.1%,19940805-20221123, 60.4%,20080928-20221123, 62.8%
USC00042239,32.9897,-116.5872,1414.3,CA,CUYAMACA,,15,-8,19670822-20231001, 80.6%,19950911-20231001, 67.2%,20090920-20231001, 65.9%
USC00042294,38.5349,-121.7761,18.3,CA,DAVIS 2 WSW EXP FARM,,15,-8,19480701-20240405, 91.0%,19860519-20240405, 85.6%,20050427-20240405, 77.0%
USC00042306,41.2115,-121.3738,1113.4,CA,DAY,,15,-8,19480701-20240411, 92.1%,19860522-20240411, 90.4%,20050501-20240411, 94.1%
USC00042500,39.5633,-120.8238,888.5,CA,DOWNIEVILLE,,15,-8,19480701-20240401, 93.7%,19860517-20240401, 93.7%,20050424-20240401, 96.5%
USC00042749,41.9880,-123.7183,520.6,CA,ELK VALLEY,,15,-8,19710501-20240319, 75.5%,19971009-20240319, 64.5%,20101229-20240319, 57.4%
USC00042899,41.4574,-122.8994,902.2,CA,ETNA,,15,-8,19480701-20240402, 95.4%,19860517-20240402, 94.5%,20050424-20240402, 94.1%
USC00042935,38.2880,-122.0344,33.5,CA,FAIRFIELD 3 NNE,,15,-8,19720201-20240402, 92.1%,19980303-20240402, 94.3%,20110318-20240402, 98.7%
USC00043038,38.5251,-120.6982,661.4,CA,FIDDLETOWN DEXTER RCH,,15,-8,19480701-20240402, 96.5%,19860517-20240402, 94.4%,20050424-20240402, 94.8%
USC00043161,39.5100,-123.7564,37.5,CA,FORT BRAGG 5 N,,15,-8,19480701-20240401, 79.4%,19860517-20240401, 71.6%,20050424-20240401, 64.3%
USC00043182,41.6010,-122.8478,831.8,CA,FORT JONES RS,,15,-8,19761117-20240401, 89.3%,20000725-20240401, 94.3%,20120528-20240401, 97.3%
USC00043194,40.2183,-123.6322,67.1,CA,FORT SEWARD,,15,-8,19720801-20240405, 68.8%,19980603-20240405, 76.1%,20110505-20240405, 91.3%
USC00043219,34.7333,-119.1038,1575.5,CA,FRAZIER PARK 9 SW,,15,-8,19940307-20240412, 96.3%,20090325-20240412, 98.0%,20161002-20240412, 99.6%
USC00043357,41.8459,-123.9670,118.0,CA,GASQUET RS,,15,-8,19710301-20240401, 81.7%,19970915-20240401, 79.3%,20101223-20240401, 80.7%
USC00043384,38.9330,-120.8008,914.7,CA,GEORGETOWN RS,,15,-8,19671101-20240403, 83.3%,19960117-20240403, 88.6%,20100224-20240403, 95.3%
USC00043402,34.5225,-119.6822,474.9,CA,GIBRALTAR DAM NO. 2,,15,-8,19700501-20240401, 95.4%,19970416-20240401, 94.9%,20101008-20240401, 95.6%
USC00043417,37.0030,-121.5608,59.1,CA,GILROY,,15,-8,20190328-20230603, 71.1%,20210430-20230603, 92.4%,20220517-20230603, 84.9%
USC00043419,37.0327,-121.4316,320.0,CA,GILROY 8 NE,,15,-8,19480701-20240403, 91.1%,19860518-20240403, 85.8%,20050425-20240403, 92.7%
USC00043573,39.2041,-121.0680,731.5,CA,GRASS VALLEY NO. 2,,15,-8,19660913-20240403, 87.0%,19950624-20240403, 79.0%,20091112-20240403, 80.4%
USC00043647,40.4863,-123.9088,125.9,CA,GRIZZLY CREEK STATE PARK,,15,-8,19950702-20121027, 66.1%,20040228-20121027, 67.8%,20080628-20121027, 78.8%
USC00043669,37.8444,-120.2258,853.4,CA,GROVELAND 2,,15,-8,19480701-20240401, 92.9%,19860517-20240401, 88.2%,20050424-20240401, 93.7%
USC00043761,41.7961,-123.3747,348.1,CA,HAPPY CAMP RANGER STATION,,15,-8,19480701-20240405, 88.1%,19860519-20240405, 83.7%,20050427-20240405, 83.2%
USC00043791,40.3636,-122.9650,838.2,CA,HARRISON GULCH RS,,15,-8,19481101-20240404, 87.2%,19860719-20240404, 83.6%,20050527-20240404, 87.3%
USC00043891,39.0583,-120.4150,1478.3,CA,HELL HOLE,,15,-8,19540101-20240402, 70.7%,19890215-20240402, 89.2%,20060909-20240402, 95.6%
USC00043928,36.3052,-120.7047,842.8,CA,HERNANDEZ 7 SE,,15,-8,19480701-20180731, 90.8%,19830716-20180731, 83.9%,20010121-20180731, 81.2%
USC00043939,37.9613,-119.7830,1179.6,CA,HETCH HETCHY,,15,-8,19480701-20240403, 94.1%,19860518-20240403, 91.7%,20050425-20240403, 92.0%
USC00044025,36.8483,-121.4213,83.8,CA,HOLLISTER 2,,15,-8,19480701-20240402, 86.3%,19860517-20240402, 80.7%,20050424-20240402, 97.9%
USC00044074,40.2375,-124.1322,113.7,CA,HONEYDEW 1 SW,,15,-8,19710701-20240406, 69.2%,19971117-20240406, 69.4%,20110126-20240406, 87.4%
USC00044089,41.0483,-123.6755,102.4,CA,HOOPA,,15,-8,19710601-20240401, 87.9%,19971031-20240401, 94.1%,20110115-20240401, 96.3%
USC00044191,40.6161,-123.4566,389.5,CA,HYAMPOM,,15,-8,19480701-20170407, 91.5%,19821118-20170407, 84.7%,20000127-20170407, 81.4%
USC00044232,36.7980,-118.2036,1204.0,CA,INDEPENDENCE,,15,-8,19480701-20190114, 93.1%,19831008-20190114, 88.0%,20010527-20190114, 79.2%
USC00044587,40.6422,-123.9149,744.6,CA,KNEELAND 10 SSE,,15,-8,19540617-20240403, 85.8%,19890510-20240403, 82.4%,20061021-20240403, 95.9%
USC00044689,39.2030,-123.1850,232.9,CA,LAKE MENDOCINO DAM,,15,-8,19720601-20240403, 81.6%,19980503-20240403, 74.4%,20110418-20240403, 87.3%
USC00044712,38.4920,-122.0039,57.0,CA,LAKE SOLANO,,15,-8,19621001-20240401, 93.4%,19930701-20240401, 95.4%,20081115-20240401, 97.0%
USC00044883,39.8744,-123.7205,214.3,CA,LEGGETT,,15,-8,19720801-20240406, 62.3%,19980604-20240406, 64.7%,20110506-20240406, 77.5%
USC00045067,36.4430,-118.0433,1155.2,CA,LONE PINE 11 S COTTONWOOD POWER HOUSE,,15,-8,19480701-20190101, 83.6%,19831001-20190101, 71.8%,20010517-20190101, 65.2%
USC00045100,35.3836,-118.4122,1290.8,CA,LORAINE 5 NNE,,15,-8,19870501-20200601, 58.9%,20031115-20200601, 43.4%,20120222-20200601, 48.5%
USC00045184,35.8780,-121.4497,108.2,CA,LUCIA WILLOW SPRINGS,,15,-8,19480701-20240329, 90.0%,19860515-20240329, 81.8%,20050421-20240329, 84.4%
USC00045242,40.3186,-123.3738,842.2,CA,MAD RIVER 12 SE,,15,-8,19961101-20240402, 89.9%,20100718-20240402, 94.0%,20170525-20240402, 91.0%
USC00045258,38.8547,-122.7819,728.5,CA,MAHNKE,,15,-8,19560101-20230902, 92.0%,19891101-20230902, 90.8%,20061002-20230902, 97.9%
USC00045623,40.1414,-120.3533,1481.3,CA,MILFORD LAUFMAN RS,,15,-8,19480701-20240410, 95.5%,19860521-20240410, 95.7%,20050430-20240410, 97.1%
USC00045679,40.3458,-121.6091,1485.9,CA,MINERAL,,15,-8,19480701-20240403, 82.9%,19860518-20240403, 78.3%,20050425-20240403, 89.6%
USC00045711,40.1816,-123.7761,81.1,CA,MIRANDA 4 SE,,15,-8,19650101-20240208, 84.3%,19940721-20240208, 78.0%,20090430-20240208, 84.4%
USC00045741,37.6255,-121.0313,27.1,CA,MODESTO 2,,15,-8,19480701-20240412, 94.9%,19860522-20240412, 94.9%,20050502-20240412, 98.5%
USC00045756,35.0492,-118.1619,833.6,CA,MOJAVE,,15,-8,19591101-20210303, 88.2%,19900702-20210303, 83.9%,20051101-20210303, 86.0%
USC00045785,41.7815,-122.4710,806.2,CA,MONTAGUE 5 NE,,15,-8,19480701-20240317, 87.1%,19860509-20240317, 92.2%,20050412-20240317, 94.8%
USC00045802,36.5927,-121.8555,37.2,CA,MONTEREY WFO,,15,-8,19950701-20190203, 97.0%,20070418-20190203, 99.1%,20130311-20190203, 99.6%
USC00045853,37.1363,-121.6025,114.3,CA,MORGAN HILL,,15,-8,19480701-20240418, 89.0%,19860525-20240418, 92.0%,20050506-20240418, 93.3%
USC00045983,41.3167,-122.3167,1078.7,CA,MOUNT SHASTA WSO CITY,,15,-8,19480801-20240322, 86.3%,19860527-20240322, 72.9%,20050424-20240322, 64.8%
USC00045996,37.9027,-122.6033,446.5,CA,MOUNT TAMALPAIS 2 SW,,15,-8,19590625-20240403, 83.6%,19911113-20240403, 81.9%,20080123-20240403, 75.7%
USC00046105,39.1739,-123.5647,51.2,CA,NAVARRO 1 NW,,15,-8,19580201-20240403, 82.2%,19910304-20240403, 79.1%,20070918-20240403, 76.8%
USC00046115,34.8300,-114.5936,146.3,CA,NEEDLES,,15,-8,19530218-20150604, 82.7%,19840411-20150604, 75.6%,19991107-20150604, 81.9%
USC00046154,34.9455,-119.6827,658.4,CA,NEW CUYAMA FIRE STATION,,15,-8,19731211-20240412, 81.5%,19990210-20240412, 79.2%,20110911-20240412, 95.2%
USC00046174,38.0047,-120.4863,292.6,CA,NEW MELONES DAM HQ,,15,-8,19940101-20240401, 88.1%,20090215-20240401, 81.5%,20160908-20240401, 68.0%
USC00046232,39.3675,-120.8991,999.7,CA,NORTH BLOOMFIELD,,15,-8,19691001-20240405, 88.8%,19970102-20240405, 88.0%,20100819-20240405, 91.4%
USC00046513,41.3033,-123.5344,132.0,CA,ORLEANS RS,,15,-8,19710601-20240404, 73.1%,19971101-20240404, 90.6%,20110117-20240404, 88.6%
USC00046521,39.5177,-121.5530,52.1,CA,OROVILLE,,15,-8,19821101-20240403, 86.3%,20030718-20240403, 95.2%,20131124-20240403, 99.2%
USC00046577,34.6825,-119.3530,1090.3,CA,OZENA GUARD STATION,,15,-8,19721121-20240412, 90.9%,19980802-20240412, 92.4%,20110607-20240412, 97.4%
USC00046624,34.5883,-118.0938,796.1,CA,PALMDALE,,15,-8,19630213-20240403, 95.3%,19930908-20240403, 94.0%,20081220-20240403, 97.9%
USC00046726,39.8875,-122.5538,230.1,CA,PASKENTA RANGER STATION,,15,-8,19491201-20240404, 85.2%,19870201-20240404, 84.8%,20050902-20240404, 91.0%
USC00046730,35.6277,-120.6855,222.5,CA,PASO ROBLES,,15,-8,19760913-20240401, 94.2%,20000622-20240401, 91.8%,20120512-20240401, 98.3%
USC00046826,38.2577,-122.6077,6.1,CA,PETALUMA AIRPORT,,15,-8,19640603-20240331, 82.5%,19940502-20240331, 78.6%,20090416-20240331, 76.9%
USC00046893,38.1869,-120.0055,1706.9,CA,PINECREST SUMMIT RS,,15,-8,19641127-20240409, 87.1%,19940803-20240409, 84.8%,20090606-20240409, 98.7%
USC00046910,34.6102,-119.3666,1286.3,CA,PINE MOUNTAIN INN,,15,-8,19650120-20130430, 89.4%,19890311-20130430, 89.9%,20010405-20130430, 83.4%
USC00046964,38.7311,-120.8469,475.5,CA,PLACERVILLE DISP. PLANT,,15,-8,19630614-20240401, 95.6%,19931106-20240401, 96.3%,20090118-20240401, 97.7%
USC00046998,39.7578,-120.6964,1574.3,CA,PLUMAS EUREKA ST PARK,,15,-8,19640501-20240403, 85.7%,19940417-20240403, 78.6%,20090410-20240403, 73.5%
USC00047085,39.8053,-120.4719,1478.3,CA,PORTOLA,,15,-8,19541019-20240403, 85.6%,19890711-20240403, 84.5%,20061121-20240403, 82.9%
USC00047293,40.1622,-122.2202,80.8,CA,RED BLUFF TREATMENT PLANT,,15,-8,19920201-20240401, 88.5%,20080302-20240401, 93.3%,20160317-20240401, 99.0%
USC00047342,40.9069,-123.8147,269.1,CA,REDWOOD CREEK O'KANE,,15,-8,19750214-20231107, 61.0%,19990627-20231107, 59.4%,20110901-20231107, 68.8%
USC00047489,38.9027,-120.3766,1560.6,CA,ROBBS PEAK PH,,15,-8,19670201-20240402, 95.3%,19950902-20240402, 95.2%,20091217-20240402, 97.7%
USC00047600,34.2045,-117.0870,1824.8,CA,RUNNING SPRINGS 1 E,,15,-8,19480701-20221123, 85.8%,19850911-20221123, 78.9%,20040417-20221123, 72.3%
USC00047646,38.4930,-122.5383,542.5,CA,SAINT HELENA 4 WSW,,15,-8,19480701-20240401, 83.7%,19860517-20240401, 80.4%,20050424-20240401, 86.3%
USC00047851,35.3056,-120.6619,93.9,CA,SAN LUIS OBISPO POLY,,15,-8,19480701-20240415, 84.9%,19860524-20240415, 80.8%,20050504-20240415, 82.8%
USC00047867,35.7527,-120.6827,224.9,CA,SAN MIGUEL WOLF RANCH,,15,-8,19731220-20240401, 91.5%,19990209-20240401, 91.0%,20110905-20240401, 95.2%
USC00047902,34.4167,-119.6844,4.9,CA,SANTA BARBARA,,15,-8,19480701-20240402, 91.4%,19860517-20240402, 90.3%,20050424-20240402, 91.6%
USC00048025,41.3010,-123.1330,687.3,CA,SAWYERS BAR RS,,15,-8,19710601-20240402, 78.3%,19971031-20240402, 89.3%,20110116-20240402, 95.7%
USC00048072,38.4086,-122.8211,20.7,CA,SEBASTOPOL,,15,-8,19480701-20240402, 92.3%,19860517-20240402, 91.1%,20050424-20240402, 95.2%
USC00048135,40.7141,-122.4161,327.7,CA,SHASTA DAM,,15,-8,19480701-20240401, 92.7%,19860517-20240401, 90.4%,20050424-20240401, 91.5%
USC00048218,39.5833,-120.3705,1516.4,CA,SIERRAVILLE RS,,15,-8,19480701-20240403, 83.2%,19860518-20240403, 80.6%,20050425-20240403, 79.0%
USC00048261,34.2838,-118.8119,201.2,CA,SIMI SANITATION PLANT,,15,-8,19751031-20131107, 89.7%,19941103-20131107, 90.3%,20040506-20131107, 91.5%
USC00048332,39.3255,-120.3672,2098.5,CA,SODA SPRINGS 1 E,,15,-8,19610701-20240412, 81.3%,19921120-20240412, 89.3%,20080801-20240412, 91.2%
USC00048355,38.3511,-119.4500,2098.9,CA,SONORA JUNCTION,,15,-8,19590908-20240404, 91.1%,19911221-20240404, 90.5%,20080211-20240404, 91.6%
USC00048544,39.9041,-121.5280,1072.9,CA,STIRLING CITY RS,,15,-8,19571029-20240403, 77.7%,19910115-20240403, 76.0%,20070825-20240403, 89.1%
USC00048587,39.5861,-122.5341,243.8,CA,STONY GORGE RESERVOIR,,15,-8,19480701-20240401, 92.8%,19860517-20240401, 92.1%,20050424-20240401, 95.9%
USC00048680,36.8975,-121.8347,24.4,CA,SUNSET STATE BEACH,,15,-8,19561120-20240331, 88.3%,19900726-20240331, 87.3%,20070529-20240331, 81.6%
USC00048703,40.4239,-120.6747,1388.4,CA,SUSANVILLE 1 WNW,,15,-8,19520920-20240401, 87.1%,19880626-20240401, 81.6%,20060514-20240401, 84.8%
USC00048832,35.1308,-118.4325,1207.0,CA,TEHACHAPI AP,,15,-8,19480701-20240220, 89.0%,19860426-20240220, 86.4%,20050324-20240220, 84.0%
USC00048885,38.8038,-122.8127,530.4,CA,THE GEYSERS,,15,-8,19480701-20240403, 86.9%,19860518-20240403, 80.4%,20050425-20240403, 84.0%
USC00048912,36.3675,-118.8475,589.8,CA,THREE RIVERS 6 SE,,15,-8,19570109-20170801, 93.8%,19870421-20170801, 90.5%,20020611-20170801, 87.1%
USC00048913,36.3638,-118.8336,634.0,CA,THREE RIVERS 7 SE,,15,-8,20171204-20240320, 86.8%,20210126-20240320, 81.8%,20220823-20240320, 66.1%
USC00048917,36.4650,-118.8619,347.5,CA,THREE RIVERS EDISON PH 1,,15,-8,19480701-20240125, 93.5%,19860413-20240125, 91.4%,20050304-20240125, 90.0%
USC00049043,39.3330,-120.1730,1774.9,CA,TRUCKEE RS,,15,-8,19480701-20240403, 87.4%,19860518-20240403, 83.2%,20050425-20240403, 81.3%
USC00049053,41.9600,-121.4745,1230.8,CA,TULELAKE,,15,-8,19480701-20240404, 92.6%,19860518-20240404, 91.3%,20050426-20240404, 91.0%
USC00049273,38.6086,-123.0180,384.0,CA,VENADO,,15,-8,19480701-20240404, 84.0%,19860518-20240404, 75.4%,20050426-20240404, 82.4%
USC00049390,40.4583,-121.8663,676.7,CA,VOLTA PH,,15,-8,19480701-20240401, 95.9%,19860517-20240401, 94.6%,20050424-20240401, 97.1%
USC00049490,40.7353,-122.9441,627.3,CA,WEAVERVILLE,,15,-8,19480701-20240402, 88.2%,19860517-20240402, 84.0%,20050424-20240402, 87.3%
USC00049605,39.0277,-121.3908,32.0,CA,WHEATLAND 2 NE,,15,-8,19480701-20240422, 94.9%,19860527-20240422, 93.0%,20050509-20240422, 95.1%
USC00049684,39.4194,-123.3425,412.4,CA,WILLITS 1 NE,,15,-8,19891002-20121013, 79.1%,20010408-20121013, 75.1%,20070110-20121013, 84.1%
USC00049855,37.7503,-119.5897,1224.7,CA,YOSEMITE PARK HEADQUARTERS,,15,-8,19480701-20240313, 87.6%,19860507-20240313, 83.7%,20050409-20240313, 83.2%
USC00050109,40.1551,-103.1418,1384.4,CO,AKRON 4 E,,15,-7,19480801-20240401, 95.3%,19860601-20240401, 92.1%,20050501-20240401, 94.3%
USC00050263,38.9931,-105.8915,2724.6,CO,ANTERO RESERVOIR,,15,-7,19680513-20240401, 90.0%,19960422-20240401, 88.6%,20100412-20240401, 93.3%
USC00050304,38.8528,-102.1764,1225.3,CO,ARAPAHOE,,15,-7,19480801-20240406, 96.5%,19860604-20240406, 94.8%,20050505-20240406, 94.4%
USC00050372,39.1852,-106.8380,2491.7,CO,ASPEN 1SW,,15,-7,19800625-20240401, 92.8%,20020514-20240401, 95.1%,20130422-20240401, 99.2%
USC00050834,39.6567,-102.1193,1132.9,CO,BONNY DAM 2NE,,15,-7,19510601-20240408, 60.4%,19871104-20240408, 78.4%,20060120-20240408, 76.0%
USC00050843,40.0340,-105.2813,1654.1,CO,BOULDER 2,,15,-7,19480801-20240401, 95.5%,19860601-20240401, 94.1%,20050501-20240401, 96.9%
USC00051179,39.7406,-104.1274,1554.8,CO,BYERS 5 ENE,,15,-7,19480801-20240403, 95.3%,19860602-20240403, 93.6%,20050503-20240403, 93.3%
USC00051401,39.3864,-104.8635,1876.3,CO,CASTLE ROCK,,15,-7,19480801-20240405, 84.4%,19860603-20240405, 84.2%,20050504-20240405, 93.8%
USC00051441,38.9010,-107.9021,2038.8,CO,CEDAREDGE 1E,,15,-7,20200502-20240401,100.0%,20220417-20240401, 99.9%,20230409-20240401, 99.7%
USC00051443,38.9044,-107.8913,2084.2,CO,CEDAREDGE 3E,,15,-7,19970203-20200601, 80.8%,20081002-20200601, 91.9%,20140802-20200601, 99.9%
USC00051539,38.1150,-103.5100,1264.0,CO,CHERAW 1 N,,15,-7,19480806-20240402, 92.0%,19860604-20240402, 94.1%,20050503-20240402, 95.0%
USC00051713,38.4431,-106.7616,2440.2,CO,COCHETOPA CREEK,,15,-7,19480801-20240401, 94.8%,19860601-20240401, 92.0%,20050501-20240401, 99.5%
USC00051929,40.4356,-107.5134,2099.8,CO,CRAIG TRAPPER MINE,,15,-7,20140905-20220405, 98.1%,20180620-20220405, 96.0%,20200512-20220405, 94.2%
USW00023062,39.7675,-104.8695,1610.6,CO,DENVER-CENTRAL PARK,72469,15,-7,19480801-20240412, 94.9%,19860607-20240412, 89.8%,20050510-20240412, 89.2%
USC00052286,40.2441,-108.9726,1816.6,CO,DINOSAUR NATL MONUMENT,,15,-7,19650601-20240404, 88.5%,19941102-20240404, 82.4%,20090719-20240404, 98.5%
USC00052535,40.1097,-102.4906,1204.9,CO,ECKLEY,,15,-7,19480801-20121212, 89.3%,19801006-20121212, 80.2%,19961108-20121212, 73.4%
USC00052965,38.9128,-105.2851,2560.9,CO,FLORISSANT FOSSIL BEDS,,15,-7,19741001-20240402, 84.6%,19990702-20240402, 90.1%,20111116-20240402, 98.6%
USC00053005,40.5763,-105.0857,1525.2,CO,FORT COLLINS,,15,-7,19480801-20240401, 94.9%,19860601-20240401, 94.0%,20050501-20240401, 96.4%
USC00053477,38.0614,-102.3153,1063.4,CO,GRANADA,,15,-7,19480801-20240408, 95.2%,19860605-20240408, 94.5%,20050507-20240408, 94.9%
USC00053500,40.1849,-105.8666,2526.2,CO,GRAND LAKE 6 SSW,,15,-7,19480801-20240405, 91.0%,19860603-20240405, 88.3%,20050504-20240405, 93.6%
USC00053553,40.4022,-104.6991,1437.1,CO,GREELEY UNC,,15,-7,19850711-20240412, 88.9%,20041125-20240412, 90.9%,20140804-20240412, 96.7%
USC00053579,39.1044,-104.7286,2291.5,CO,GREENLAND 9 SE,,15,-7,19480801-20240402, 95.1%,19860602-20240402, 92.1%,20050502-20240402, 90.9%
USC00053584,39.2166,-104.7383,2103.1,CO,GREENLAND 6 NE,,15,-7,19480801-20240403, 94.3%,19860602-20240403, 92.0%,20050503-20240403, 96.9%
USC00053662,38.5254,-106.9672,2323.2,CO,GUNNISON 3SW,,15,-7,19480801-20240401, 90.8%,19860601-20240401, 87.1%,20050501-20240401, 95.5%
USC00054082,40.5454,-102.3412,1152.1,CO,HOLYOKE,,15,-7,19780701-20240401, 75.9%,20010516-20240401, 89.4%,20121023-20240401, 94.6%
USC00054155,39.9839,-104.0838,1474.6,CO,HOYT,,15,-7,19480801-20240404, 87.5%,19860603-20240404, 83.5%,20050504-20240404, 88.2%
USC00054172,39.1438,-103.4897,1531.6,CO,HUGO 1 NW,,15,-7,19480801-20191008, 92.9%,19840305-20191008, 89.3%,20011221-20191008, 91.6%
USC00054380,39.6552,-102.6804,1303.0,CO,JOES,,15,-7,19480801-20220901, 85.4%,19850816-20220901, 83.2%,20040223-20220901, 82.3%
USC00054388,38.0633,-102.9299,1161.6,CO,JOHN MARTIN DAM,,15,-7,19480801-20240411, 85.3%,19860606-20240411, 85.9%,20050509-20240411, 97.7%
USC00054538,37.4536,-103.3220,1581.9,CO,KIM 15 NNE,,15,-7,19480801-20240401, 94.7%,19860601-20240401, 96.6%,20050501-20240401, 97.7%
USC00054742,38.9075,-105.4705,2606.0,CO,LAKE GEORGE 8 SW,,15,-7,19480801-20240401, 91.6%,19860601-20240401, 85.5%,20050501-20240401, 91.7%
USC00054877,39.7660,-105.6263,2465.8,CO,LAWSON,,15,-7,19750206-20130902, 87.9%,19940521-20130902, 89.1%,20040111-20130902, 82.9%
USC00055121,40.2466,-105.1463,1569.7,CO,LONGMONT 6 NW,,15,-7,19480801-20240311, 91.1%,19860522-20240311, 87.0%,20050416-20240311, 90.5%
USC00055322,37.1712,-105.9401,2345.4,CO,MANASSA,,15,-7,20210603-20240401, 99.8%,20221101-20240401, 99.4%,20230717-20240401, 99.6%
USC00055352,38.8557,-104.9330,2029.4,CO,MANITOU SPRINGS,,15,-7,19480801-20240405, 88.7%,19860603-20240405, 83.1%,20050504-20240405, 91.2%
USC00055484,40.0358,-107.9058,1898.6,CO,MEEKER,,15,-7,19480801-20240404, 65.0%,19860603-20240404, 74.8%,20050504-20240404, 95.0%
USC00055706,37.5811,-106.1866,2345.4,CO,MONTE VISTA 2W,,15,-7,19480801-20240401, 49.5%,19860601-20240401, 54.9%,20050501-20240401, 98.2%
USC00055765,39.6527,-105.2030,1780.0,CO,MORRISON 1 SW,,15,-7,19580101-20240402, 94.3%,19910216-20240402, 93.3%,20070909-20240402, 96.4%
USC00055881,40.0361,-105.5461,3051.0,CO,NEDERLAND 5 NNW,,15,-7,19961004-20240409, 82.7%,20100707-20240409, 90.1%,20170523-20240409, 97.1%
USC00055934,40.9319,-103.8678,1578.9,CO,NEW RAYMER 21 N,,15,-7,20050201-20240406, 91.4%,20140904-20240406, 97.6%,20190621-20240406, 95.3%
USC00055970,37.8123,-109.0132,2036.4,CO,NORTHDALE,,15,-7,20180427-20240401, 99.9%,20210414-20240401, 99.8%,20221007-20240401, 99.6%
USC00055982,40.9366,-106.3391,2386.6,CO,NORTHGATE,,15,-7,19790301-20231010, 76.0%,20010620-20231010, 74.4%,20120814-20231010, 68.0%
USC00056023,40.7093,-104.7583,1584.7,CO,NUNN,,15,-7,19480801-20240301, 92.2%,19860517-20240301, 91.6%,20050408-20240301, 92.3%
USC00056132,38.4368,-103.7224,1388.4,CO,ORDWAY 15N,,15,-7,20161125-20240401,100.0%,20200729-20240401, 99.9%,20220531-20240401, 99.9%
USC00056136,38.5301,-103.7059,1453.0,CO,ORDWAY 21 N,,15,-7,19800601-20150701, 89.2%,19971215-20150701, 90.0%,20060922-20150701, 94.6%
USC00056205,38.0263,-107.6725,2352.4,CO,OURAY NO. 2,,15,-7,20060903-20240401, 95.9%,20150618-20240401, 99.3%,20191109-20240401, 98.7%
USC00056595,37.5492,-108.8304,2103.4,CO,PLEASANT VIEW 5SW,,15,-7,20100101-20130602, 99.9%,20110917-20130602, 99.8%,20120725-20130602, 99.5%
USC00057033,39.5572,-107.7261,1667.0,CO,RIFLE 3ENE,,15,-7,20090902-20240404, 98.8%,20161218-20240404, 99.5%,20200811-20240404, 99.5%
USC00057296,40.7008,-105.7119,2346.0,CO,RUSTIC 9WSW,,15,-7,20220402-20240401, 74.3%,20230402-20240401, 83.1%,20231001-20240401, 71.2%
USC00057320,37.9258,-104.9298,2068.4,CO,RYE SCHOOL,,15,-7,20191107-20240401,100.0%,20220118-20240401, 99.9%,20230224-20240401, 99.8%
USC00057337,38.0921,-106.1512,2359.5,CO,SAGUACHE,,15,-7,20200630-20240408, 97.4%,20220520-20240408, 97.5%,20230429-20240408, 99.4%
USC00057436,37.1941,-105.4325,2418.9,CO,SAN LUIS 1S,,15,-7,20090601-20240405, 89.6%,20161102-20240405, 99.9%,20200719-20240405, 99.9%
USC00057519,39.2951,-102.8677,1434.4,CO,SEIBERT,,15,-7,19550505-20240419, 89.7%,19891026-20240419, 83.4%,20070122-20240419, 85.4%
USC00057560,39.5720,-103.2924,1524.0,CO,SHAW 4ENE,,15,-7,19970101-20240214, 87.9%,20100724-20240214, 84.7%,20170504-20240214, 75.4%
USC00057572,37.7150,-105.2352,2360.4,CO,SHEEP MOUNTAIN,,15,-7,19880104-20190812, 90.4%,20031023-20190812, 92.4%,20110917-20190812, 93.7%
USC00057664,39.1398,-104.0879,1823.9,CO,SIMLA,,15,-7,19480801-20240408, 90.0%,19860605-20240408, 88.5%,20050507-20240408, 88.1%
USC00058064,39.2495,-106.3713,2968.1,CO,SUGARLOAF RESERVOIR,,15,-7,19501026-20240401, 89.1%,19870714-20240401, 91.4%,20051121-20240401, 94.4%
USC00058220,37.0727,-105.0530,2512.8,CO,TERCIO 4 NW,,15,-7,19480812-20240406, 90.4%,19860609-20240406, 85.3%,20050508-20240406, 86.1%
USC00058429,37.1787,-104.4870,1837.9,CO,TRINIDAD,,15,-7,19730501-20240401, 92.4%,19981016-20240401, 93.5%,20110709-20240401, 96.2%
USC00058436,37.1502,-104.5568,1923.3,CO,TRINIDAD LAKE,,15,-7,19890401-20240409, 93.6%,20061005-20240409, 96.3%,20150708-20240409, 98.7%
USC00058781,37.6300,-104.7956,1917.5,CO,WALSENBURG 1 NW,,15,-7,19480801-20240401, 92.4%,19860601-20240401, 92.0%,20050501-20240401, 92.4%
USC00058997,37.8673,-104.1138,1437.1,CO,WHITE ROCK,,15,-7,19480801-20221028, 93.1%,19850914-20221028, 91.7%,20040406-20221028, 93.7%
USC00059096,40.0372,-106.2052,2328.4,CO,WILLIAMS FORK DAM,,15,-7,19820601-20240401, 87.4%,20030502-20240401, 83.5%,20131016-20240401, 89.0%
USC00059210,39.1005,-105.0942,2365.2,CO,WOODLAND PARK 8 NNW,,15,-7,20191016-20240401,100.0%,20220107-20240401, 99.9%,20230218-20240401, 99.8%
USC00059285,38.8590,-104.2426,1909.9,CO,YODER 2 NW,,15,-7,19760908-20240401, 85.3%,20000620-20240401, 92.3%,20120511-20240401, 99.0%
USC00065445,41.9725,-73.2208,408.4,CT,NORFOLK 2 SW,,15,-5,19480501-20240401, 85.3%,19860416-20240401, 73.3%,20050408-20240401, 67.5%
USC00068330,41.6931,-73.0600,164.0,CT,THOMASTON DAM,,15,-5,19610914-20231019, 79.2%,19921001-20231019, 67.7%,20080410-20231019, 60.7%
USC00075320,38.7841,-75.1581,3.0,DE,LEWES,,15,-5,20200104-20200304,100.0%,20200203-20200304, 96.8%,20200218-20200304, 93.8%
USC00076410,39.6682,-75.7457,32.3,DE,NEWARK AG FARM,,15,-5,19560801-20190903, 72.2%,19880216-20190903, 56.6%,20031125-20190903, 67.6%
USC00080845,26.3676,-80.1107,9.1,FL,BOCA RATON,,15,-5,19420101-20220316, 85.1%,19820207-20220316, 84.9%,20020225-20220316, 79.7%
USC00080975,29.9625,-82.9108,9.1,FL,BRANFORD,,15,-5,19440821-20160307, 53.1%,19800529-20160307, 70.2%,19980418-20160307, 93.7%
USC00081048,28.4811,-82.4353,20.4,FL,BROOKSVILLE 7 SSW,,15,-5,19720128-20240401, 97.7%,19980228-20240401, 98.0%,20110316-20240401, 98.7%
USC00082008,29.6333,-83.1053,12.8,FL,CROSS CITY 1 E,,15,-5,19660627-20240410, 87.6%,19950519-20240410, 86.6%,20091029-20240410, 92.0%
USC00082229,29.0667,-81.2833,8.8,FL,DELAND 3 NE,,15,-5,19860221-20240325, 87.9%,20050309-20240325, 94.2%,20140916-20240325, 92.9%
USC00082391,30.2497,-83.2594,16.5,FL,DOWLING PARK 1 W,,15,-5,19440804-20181106, 81.1%,19810920-20181106, 78.6%,20000413-20181106, 70.0%
USC00083538,30.9575,-85.5330,48.8,FL,GRACEVILLE 1 SW,,15,-6,19420101-20200710, 78.9%,19810406-20200710, 67.1%,20001122-20200710, 56.3%
USC00084095,25.5011,-80.5500,2.7,FL,HOMESTEAD GEN AVIATION AP,,15,-5,19950701-20240402, 84.0%,20091115-20240402, 92.3%,20170123-20240402, 93.7%
USC00084273,29.0248,-82.6157,9.1,FL,INGLIS 3 E,,15,-5,19420101-20240401, 93.9%,19830215-20240401, 91.3%,20030908-20240401, 90.5%
USC00084802,27.9944,-82.0138,42.4,FL,LAKELAND 2,,15,-5,20011101-20240404, 85.8%,20130117-20240404, 97.3%,20180826-20240404, 94.7%
USC00085076,28.8728,-81.7844,20.7,FL,LISBON,,15,-5,19581209-20240331, 94.4%,19910805-20240331, 92.1%,20071202-20240331, 94.4%
USC00085237,29.2003,-81.9306,25.9,FL,LYNNE,,15,-5,19420101-20160419, 89.4%,19790224-20160419, 86.4%,19970921-20160419, 86.7%
USC00085391,29.6700,-81.2150,1.5,FL,MARINELAND,,15,-5,19420101-20160601, 92.9%,19790318-20160601, 91.2%,19971024-20160601, 90.1%
USC00085612,28.1136,-80.6540,10.7,FL,MELBOURNE WFO,,15,-5,19420101-20240401, 95.0%,19830215-20240401, 94.8%,20030908-20240401, 97.1%
USC00085880,30.4405,-83.9858,66.8,FL,MONTICELLO 10 SW,,15,-5,20070801-20240405, 91.9%,20151203-20240405, 96.9%,20200203-20240405, 99.9%
USC00085895,26.8400,-81.0872,10.7,FL,MOORE HAVEN LOCK 1,,15,-5,19420101-20200722, 86.9%,19810412-20200722, 74.1%,20001201-20200722, 84.5%
USC00086240,30.5316,-86.4928,22.6,FL,NICEVILLE,,15,-6,19500701-20240408, 89.3%,19870520-20240408, 83.9%,20051028-20240408, 95.4%
USC00086323,26.3354,-80.5373,4.9,FL,NORTH NEW RVR CANAL 2,,15,-5,19420101-20240401, 71.8%,19830215-20240401, 47.8%,20030908-20240401, 63.9%
USC00086842,30.2491,-85.6605,1.5,FL,PANAMA CITY 5N,,15,-6,19711201-20240102, 87.8%,19971216-20240102, 82.3%,20101224-20240102, 84.0%
USC00086880,27.6090,-82.3476,18.3,FL,PARRISH,,15,-5,19440818-20210709, 89.9%,19830128-20210709, 86.0%,20020419-20210709, 78.3%
USC00087440,30.0678,-82.1928,36.6,FL,RAIFORD STATE PRISON,,15,-5,19490319-20161212, 85.6%,19830130-20161212, 78.3%,20000106-20161212, 75.1%
USC00087851,28.3381,-82.2602,52.7,FL,SAINT LEO,,15,-5,19440817-20240403, 96.6%,19840610-20240403, 94.9%,20040507-20240403, 94.7%
USC00087886,27.7833,-82.6333,10.7,FL,ST PETERSBURG,,15,-5,19460201-20150102, 91.1%,19800718-20150102, 85.2%,19971010-20150102, 79.6%
USC00088780,25.7608,-80.8241,4.6,FL,TAMIAMI TRAIL 40 MI. BEND,,15,-5,19420101-20240402, 84.0%,19830216-20240402, 80.4%,20030909-20240402, 82.0%
USC00088782,27.7053,-82.4009,12.2,FL,TAMPA BAY AREA WFO,72210,15,-5,20000101-20240402, 37.1%,20120216-20240402, 74.2%,20180310-20240402, 97.2%
USC00088841,25.0069,-80.5211,1.5,FL,TAVERNIER,,15,-5,19980701-20240308, 83.1%,20110505-20240308, 96.8%,20171005-20240308, 98.5%
USC00089010,25.7647,-80.4775,4.0,FL,TRAIL GLADE RANGES,,15,-5,19661215-20240402, 74.5%,19950809-20240402, 79.6%,20091205-20240402, 86.3%
USC00089176,27.1006,-82.4364,2.4,FL,VENICE,,15,-5,19420101-20240401, 88.4%,19830215-20240401, 87.2%,20030908-20240401, 88.0%
USC00089184,27.1819,-81.3509,42.7,FL,VENUS,,15,-5,19420101-20230105, 90.3%,19820704-20230105, 84.4%,20021004-20230105, 86.6%
USC00089219,27.6527,-80.4030,6.1,FL,VERO BEACH 4SE,,15,-5,19650501-20240301, 87.8%,19940930-20240301, 79.6%,20090615-20240301, 79.0%
USC00089415,30.6323,-85.5976,45.7,FL,WAUSAU,,15,-6,19650801-20201007, 77.8%,19930305-20201007, 81.8%,20061221-20201007, 87.2%
USC00089795,30.7219,-84.8741,32.6,FL,WOODRUFF DAM,,15,-5,19560401-20240401, 83.0%,19900401-20240401, 74.1%,20070401-20240401, 64.5%
USC00090044,34.3407,-84.8347,291.4,GA,ADAIRSVILLE 5 SE,,15,-5,19860918-20240301, 90.0%,20050609-20240301, 93.4%,20141020-20240301, 89.0%
USC00091619,34.3656,-83.2328,204.2,GA,CARNESVILLE,,15,-5,19480601-20240412, 87.1%,19860507-20240412, 87.8%,20050424-20240412, 96.6%
USC00092361,31.8453,-83.9409,74.7,GA,CRISP CO POWER DAM,,15,-5,20020601-20240410, 89.1%,20130506-20240410, 99.7%,20181023-20240410, 99.8%
USC00092485,33.9982,-84.7510,313.3,GA,DALLAS 7 NE,,15,-5,19480601-20240302, 93.7%,19860417-20240302, 93.2%,20050325-20240302, 91.5%
USC00092517,34.1175,-83.3044,237.7,GA,DANIELSVILLE,,15,-5,20221118-20240401, 97.2%,20230726-20240401, 95.2%,20231128-20240401, 99.2%
USC00092593,30.9772,-84.6367,57.9,GA,DECATUR COUNTY FIRE AND RESCUE,,15,-5,20100803-20190603, 84.6%,20150102-20190603, 72.9%,20170318-20190603, 64.1%
USC00092844,32.5574,-82.8999,61.0,GA,DUBLIN 2,,15,-5,19480601-20240416, 89.6%,19860509-20240416, 87.3%,20050427-20240416, 88.8%
USC00093028,31.5663,-84.7338,89.6,GA,EDISON,,15,-5,19480601-20200908, 91.1%,19840720-20200908, 86.7%,20020814-20200908, 81.8%
USC00093312,30.6908,-82.5633,35.1,GA,FARGO,,15,-5,19480601-20160406, 87.4%,19820504-20160406, 83.3%,19990420-20160406, 85.3%
USC00093460,30.7997,-82.0313,9.1,GA,FOLKSTON 3 SW,,15,-5,19480701-20161202, 90.7%,19820916-20161202, 85.1%,19991025-20161202, 89.9%
USC00094204,31.8878,-82.5808,76.2,GA,HAZLEHURST,,15,-5,19480601-20160303, 93.2%,19820417-20160303, 90.9%,19990326-20160303, 91.3%
USC00094623,33.3200,-83.8436,131.1,GA,JACKSON DAM,,15,-5,19480601-20240115, 84.5%,19860324-20240115, 78.3%,20050217-20240115, 94.9%
USC00094671,31.6081,-81.8797,30.5,GA,JESUP,,15,-5,19480601-20240408, 87.4%,19860505-20240408, 83.2%,20050421-20240408, 76.0%
USC00094941,34.8530,-85.3142,243.5,GA,CHICKAMAUGA 2 SW,,15,-5,19480601-20240410, 80.4%,19860506-20240410, 79.9%,20050423-20240410, 77.1%
USC00095165,33.8705,-83.1135,221.3,GA,LEXINGTON,,15,-5,19520115-20180601, 84.3%,19850324-20180601, 75.8%,20011027-20180601, 87.0%
USC00095314,33.0125,-82.3914,98.1,GA,LOUISVILLE 1 E,,15,-5,19480601-20240206, 91.9%,19860404-20240206, 88.9%,20050306-20240206, 90.5%
USC00096879,31.2928,-82.8422,62.5,GA,PEARSON,,15,-5,19480601-20161222, 93.5%,19820911-20161222, 91.2%,19991101-20161222, 88.5%
USC00097605,34.1650,-85.2583,213.4,GA,ROME 8 SW,,15,-5,19480601-20240302, 89.2%,19860417-20240302, 84.0%,20050325-20240302, 77.6%
USC00098657,32.9642,-84.2303,250.2,GA,THE ROCK RANCH,,15,-5,19480601-20210106, 92.9%,19840918-20210106, 90.7%,20021112-20210106, 84.1%
USC00098974,30.8055,-83.2736,80.8,GA,VALDOSTA 2 S,,15,-5,19541001-20170601, 87.7%,19860130-20170601, 79.5%,20010930-20170601, 66.7%
USC00099291,32.8861,-85.1838,175.3,GA,WEST POINT,,15,-5,19830203-20240412, 85.2%,20030908-20240412, 84.7%,20131225-20240412, 83.5%
USC00099486,33.9670,-83.2887,271.3,GA,WINTERVILLE,,15,-5,19970801-20220301, 85.0%,20091115-20220301, 87.5%,20160107-20220301, 99.1%
USC00101018,43.5253,-116.0542,865.6,ID,BOISE LUCKY PEAK DAM,,15,-7,19510101-20240405, 87.7%,19870819-20240405, 85.3%,20051211-20240405, 82.8%
USC00101079,48.6928,-116.3104,609.9,ID,BONNERS FERRY,,15,-8,19480701-20220217, 82.7%,19850425-20220217, 70.8%,20030921-20220217, 48.1%
USC00101956,47.6821,-116.7967,650.1,ID,COEUR D'ALENE,,15,-8,19480701-20240411, 74.4%,19860522-20240411, 63.8%,20050501-20240411, 84.6%
USC00102159,46.0336,-116.3919,1202.4,ID,COTTONWOOD 2 WSW,,15,-8,19480801-20240401, 85.8%,19860601-20240401, 80.0%,20050501-20240401, 86.3%
USC00102575,45.5525,-115.4612,1705.4,ID,DIXIE,,15,-8,19780801-20220905, 72.5%,20000818-20220905, 67.2%,20110827-20220905, 54.1%
USC00102707,44.2436,-112.2003,1661.2,ID,DUBOIS EXPERIMENT STATION,,15,-7,19480701-20240401, 83.6%,19860517-20240401, 89.6%,20050424-20240401, 82.6%
USC00102845,46.5023,-116.3216,303.3,ID,DWORSHAK FISH HATCHERY,,15,-8,19661101-20231219, 92.2%,19950526-20231219, 91.5%,20090906-20231219, 89.1%
USC00102875,45.8356,-115.4610,1236.9,ID,ELK CITY 1NE,,15,-8,19790702-20151020, 82.4%,19970825-20151020, 78.2%,20060922-20151020, 62.1%
USC00102942,43.8544,-116.4663,728.5,ID,EMMETT 2 E,,15,-7,20220103-20240408, 48.7%,20230220-20240408, 87.2%,20230914-20240408, 99.5%
USC00103143,46.0999,-115.5447,469.4,ID,FENN RANGER STATION,,15,-8,19520424-20231113, 90.2%,19880202-20231113, 89.1%,20051223-20231113, 87.2%
USC00103677,42.9183,-114.7664,1110.4,ID,GOODING 1 S,,15,-7,19520901-20240401, 88.9%,19880616-20240401, 82.2%,20060509-20240401, 80.7%
USC00103732,42.5631,-111.7594,1684.9,ID,GRACE,,15,-7,19521123-20240403, 88.0%,19880729-20240403, 87.9%,20060601-20240403, 91.1%
USC00103773,45.9397,-116.1211,1008.9,ID,GRANGEVILLE 1N,,15,-8,20000210-20240401, 88.9%,20120306-20240401, 96.7%,20180319-20240401, 97.4%
USC00103811,42.3450,-115.8836,1566.7,ID,GRASMERE 3 S,,15,-7,19630403-20200224, 88.7%,19910913-20200224, 88.2%,20051203-20200224, 83.2%
USC00104230,42.9419,-111.4361,2025.1,ID,HENRY,,15,-7,19710923-20121031, 83.1%,19920412-20121031, 81.1%,20020722-20121031, 71.1%
USC00104456,43.3455,-111.7847,1776.4,ID,IDAHO FALLS 16 SE,,15,-7,19600412-20240324, 82.1%,19920402-20240324, 73.5%,20080328-20240324, 55.1%
USC00104598,44.4203,-111.3710,1917.2,ID,ISLAND PARK,,15,-7,20001116-20240401, 74.2%,20120724-20240401, 89.7%,20180528-20240401, 93.7%
USC00104845,43.6841,-114.3602,1795.3,ID,KETCHUM RANGER STATION,,15,-7,19730301-20240401, 77.3%,19980915-20240401, 73.8%,20110624-20240401, 76.3%
USC00105177,44.6830,-113.3622,1828.8,ID,LEADORE NO. 2,,15,-7,20090801-20240402, 91.8%,20161201-20240402, 99.8%,20200801-20240402, 99.6%
USC00105462,43.9178,-113.6152,1797.4,ID,MACKAY LOST RIVER RS,,15,-7,19480701-20240404, 86.7%,19860518-20240404, 83.3%,20050426-20240404, 80.2%
USC00105567,42.3061,-113.3688,1378.0,ID,MALTA,,15,-7,19521125-20160119, 74.5%,19840622-20160119, 58.0%,20000405-20160119, 37.8%
USC00105708,44.8871,-116.1046,1531.6,ID,MCCALL,,15,-7,19710101-20240401, 81.0%,19970816-20240401, 75.1%,20101208-20240401, 70.8%
USC00106174,43.1261,-115.7119,957.1,ID,MOUNTAIN HOME,,15,-7,19480701-20170405, 86.2%,19821117-20170405, 88.8%,20000126-20170405, 89.5%
USC00106230,47.4661,-115.8113,975.7,ID,MULLAN,,15,-8,19720601-20240411, 90.1%,19980507-20240411, 90.7%,20110424-20240411, 99.3%
USC00106250,42.0264,-115.3596,1570.3,ID,MURPHY (DESERT) HOT SPRINGS,,15,-7,19871209-20230603, 67.1%,20050905-20230603, 82.0%,20140720-20230603, 77.7%
USC00106586,44.1771,-116.2904,932.1,ID,OLA,,15,-7,19480701-20240411, 38.3%,19860522-20240411, 69.4%,20050501-20240411, 71.4%
USC00107269,48.9938,-116.5024,548.3,ID,PORTHILL 1 SW,,15,-8,19710101-20240410, 83.6%,19970821-20240410, 76.7%,20101215-20240410, 87.3%
USC00107320,46.5100,-114.7111,1075.9,ID,POWELL,,15,-8,20230809-20230926,100.0%,20230902-20230926, 96.0%,20230914-20230926, 92.3%
USC00107327,43.5063,-115.5716,1456.9,ID,PRAIRIE,,15,-7,19600201-20240201, 84.7%,19920201-20240201, 74.4%,20080201-20240201, 65.7%
USC00107968,42.6028,-113.7242,1265.5,ID,RUPERT 3 WSW,,15,-7,20000101-20231212, 11.0%,20111222-20231212, 22.0%,20171216-20231212, 39.2%
USC00108137,48.2943,-116.5627,648.0,ID,SANDPOINT EXP STATION,,15,-8,19600101-20240410, 89.1%,19920220-20240410, 87.7%,20080316-20240410, 90.9%
USC00108412,43.0022,-116.8316,1877.6,ID,SILVER CITY 5 W,,15,-7,19821201-20240401, 66.6%,20030801-20240401, 61.8%,20131130-20240401, 52.7%
USC00108470,42.4963,-113.4161,1373.1,ID,SKAGGS RANCH,,15,-7,20110418-20110731, 98.0%,20110609-20110731, 97.8%,20110705-20110731, 96.3%
USC00109065,43.8563,-111.2769,1880.6,ID,TETONIA EXPERIMENT STN,,15,-7,19520517-20240401, 81.4%,19880424-20240401, 72.8%,20060413-20240401, 61.6%
USC00109120,42.0735,-115.1926,1666.0,ID,THREE CREEK SCHOOL,,15,-7,20230625-20240408,100.0%,20231116-20240408, 99.3%,20240127-20240408, 98.6%
USC00109158,42.6251,-112.0879,1499.0,ID,TOPAZ,,15,-7,19780510-20180512, 75.3%,19980511-20180512, 72.3%,20080511-20180512, 57.0%
USC00109951,44.8541,-115.5115,1554.5,ID,YELLOWPINE 7 S,,15,-7,19700805-20171019, 75.2%,19940313-20171019, 67.7%,20051230-20171019, 41.3%
USC00109963,45.5450,-115.2514,755.9,ID,YELLOWPINE BAR,,15,-8,19870101-20130501, 91.0%,20000301-20130501, 86.8%,20060930-20130501, 79.9%
USC00110082,41.0578,-90.5655,204.8,IL,ALEXIS 1 SW,,15,-6,19480701-20240408, 93.4%,19860520-20240408, 94.5%,20050429-20240408, 97.6%
USC00110281,38.3125,-89.2724,161.5,IL,ASHLEY,,15,-6,19651118-20240405, 87.8%,19950126-20240405, 88.2%,20090831-20240405, 93.4%
USC00110330,40.2332,-90.9467,203.6,IL,AUGUSTA,,15,-6,19480701-20240401, 88.3%,19860517-20240401, 85.2%,20050424-20240401, 89.3%
USW00013802,38.5500,-89.8500,135.0,IL,BELLEVILLE SCOTT AAF,,15,-6,19480701-20240401, 92.4%,19860517-20240401, 90.4%,20050424-20240401, 94.1%
USC00110583,42.2550,-88.8640,229.5,IL,BELVIDERE WWTP,,15,-6,19480701-20240411, 89.7%,19860522-20240411, 87.6%,20050501-20240411, 91.6%
USW00093809,37.0401,-89.1842,98.1,IL,CAIRO 3N,,15,-6,19480701-20240312, 90.2%,19860507-20240312, 80.3%,20050409-20240312, 86.4%
USC00111250,40.5379,-90.0421,195.1,IL,CANTON,,15,-6,20140825-20240404, 98.4%,20190615-20240404, 99.9%,20211108-20240404, 99.8%
USC00111280,39.2881,-89.8697,186.2,IL,CARLINVILLE,,15,-6,20220331-20230302, 53.1%,20220915-20230302, 11.2%,20221208-20230302,  1.2%
USC00111290,38.6249,-89.3630,152.7,IL,CARLYLE RESERVOIR,,15,-6,19700701-20240405, 78.6%,19970518-20240405, 82.6%,20101026-20240405, 93.6%
USC00111302,38.0826,-88.1734,117.7,IL,CARMI 4 NE,,15,-6,19880301-20231111, 94.8%,20060105-20231111, 94.8%,20141208-20231111, 98.0%
USC00111329,39.2975,-87.9746,189.0,IL,CASEY,,15,-6,20140726-20240311, 99.8%,20190519-20240311, 99.9%,20211014-20240311, 99.9%
USC00111577,41.7373,-87.7773,189.0,IL,CHICAGO MIDWAY AP 3SW,,15,-6,19480701-20240401, 95.9%,19860517-20240401, 94.2%,20050424-20240401, 96.8%
USC00111664,38.5047,-88.4094,138.4,IL,CISNE 2 S,,15,-6,19460701-20240301, 85.5%,19850501-20240301, 88.7%,20040930-20240301, 94.5%
USC00111743,40.1375,-88.9671,211.8,IL,CLINTON 1SSW,,15,-6,20030602-20240401, 92.7%,20131031-20240401, 99.9%,20190115-20240401, 99.8%
USC00112011,41.4492,-87.6221,216.4,IL,CRETE PUBLIC WORKS,,15,-6,19480701-20240412, 88.3%,19860522-20240412, 90.9%,20050502-20240412, 94.5%
USC00112140,40.1391,-87.6479,169.2,IL,DANVILLE,,15,-6,19510502-20240306, 95.8%,19871003-20240306, 93.8%,20051219-20240306, 97.8%
USC00112193,39.8288,-88.9505,194.8,IL,DECATUR WTP,,15,-6,19831101-20240415, 93.2%,20040123-20240415, 96.6%,20140305-20240415, 99.9%
USC00112353,37.4388,-88.6678,160.6,IL,DIXON SPRINGS AGRIC CNTR,,15,-6,19670921-20240308, 91.1%,19951214-20240308, 87.3%,20100125-20240308, 96.7%
USC00112685,39.1065,-88.5312,161.8,IL,EFFINGHAM SE,,15,-6,20200813-20240405, 99.8%,20220609-20240405, 99.6%,20230508-20240405, 99.7%
USC00112687,39.1181,-88.6244,190.5,IL,EFFINGHAM 3SW,,15,-6,19480701-20200625, 86.3%,19840628-20200625, 78.0%,20020627-20200625, 91.9%
USC00112923,40.7516,-88.4990,204.2,IL,FAIRBURY WWTP,,15,-6,19480701-20240408, 92.6%,19860520-20240408, 87.3%,20050429-20240408, 93.4%
USC00113106,38.6780,-88.4798,146.6,IL,FLORA,,15,-6,20030501-20210402, 69.4%,20120416-20210402, 55.6%,20161008-20210402, 85.0%
USC00113107,38.6609,-88.4784,149.0,IL,FLORA 2,,15,-6,20210429-20240407, 98.8%,20221018-20240407, 99.8%,20230713-20240407, 99.6%
USC00113262,42.2972,-89.6038,228.6,IL,FREEPORT WASTE WTR PL,,15,-6,19480701-20240401, 92.9%,19860517-20240401, 87.9%,20050424-20240401, 96.1%
USC00113290,41.8978,-90.1545,180.4,IL,FULTON L&D # 13,,15,-6,19480701-20240410, 70.3%,19860521-20240410, 50.0%,20050430-20240410, 78.3%
USC00113666,39.3424,-90.2060,164.6,IL,GREENFIELD,,15,-6,19480701-20240403, 91.9%,19860518-20240403, 92.5%,20050425-20240403, 89.8%
USC00113879,37.7408,-88.5244,111.3,IL,HARRISBURG,,15,-6,19880601-20240304, 80.2%,20060418-20240304, 92.7%,20150327-20240304, 97.7%
USC00114078,39.1396,-88.1905,152.4,IL,HIDALGO 3SW,,15,-6,20051001-20140930, 89.1%,20100401-20140930, 80.4%,20120630-20140930, 99.8%
USC00114198,40.4664,-87.6851,216.4,IL,HOOPESTON,,15,-6,19480701-20240306, 96.9%,19860504-20240306, 94.6%,20050404-20240306, 91.9%
USC00114317,39.1100,-87.6657,147.2,IL,HUTSONVILLE,,15,-6,19570724-20240406, 88.3%,19901129-20240406, 84.8%,20070803-20240406, 92.0%
USC00114355,41.4255,-91.0094,167.6,IL,ILLINOIS CITY DAM 16,,15,-6,19480701-20240401, 94.5%,19860517-20240401, 94.1%,20050424-20240401, 96.6%
USC00114442,39.7346,-90.1979,185.9,IL,JACKSONVILLE 2E,,15,-6,19630407-20240401, 90.7%,19931003-20240401, 91.9%,20090101-20240401, 93.7%
USC00114603,41.1351,-87.8856,182.9,IL,KANKAKEE WWTP,,15,-6,19480701-20240402, 89.6%,19860517-20240402, 85.9%,20050424-20240402, 90.0%
USC00114629,37.9835,-89.9469,118.9,IL,KASKASKIA RIVER NAVIGATION LOCK,,15,-6,19740401-20240406, 84.9%,19990404-20240406, 88.7%,20111005-20240406, 95.7%
USC00114710,41.2429,-89.8997,237.7,IL,KEWANEE 1 E,,15,-6,19510501-20240401, 57.8%,19871016-20240401, 84.8%,20060107-20240401, 97.6%
USC00114805,41.0187,-89.4153,139.6,IL,LACON,,15,-6,19840221-20240401, 84.2%,20040312-20240401, 85.5%,20140322-20240401, 99.6%
USC00114879,42.0918,-89.8420,239.3,IL,LANARK,,15,-6,19480701-20240415, 90.9%,19860524-20240415, 91.2%,20050504-20240415, 93.6%
USC00114957,38.7239,-87.7196,137.5,IL,LAWRENCEVILLE 2WSW,,15,-6,19920303-20240304, 91.3%,20080303-20240304, 95.9%,20160303-20240304, 99.8%
USC00115079,40.1520,-89.3387,177.7,IL,LINCOLN,,15,-6,20120328-20240420, 99.1%,20180409-20240420, 98.3%,20210414-20240420, 96.7%
USC00115272,40.5241,-89.4207,201.8,IL,MACKINAW 3WSW,,15,-6,20011101-20180131, 92.5%,20091216-20180131, 97.9%,20140108-20180131, 99.9%
USC00115493,42.3500,-88.2667,228.9,IL,MC HENRY,,15,-6,19480701-20240403, 86.8%,19860518-20240403, 80.1%,20050425-20240403, 92.7%
USC00115515,38.1006,-88.5330,150.0,IL,1 N MCLEANSBORO,,15,-6,20231030-20240305,100.0%,20240101-20240305, 98.5%,20240202-20240305, 97.0%
USC00115768,40.9443,-90.6381,219.5,IL,MONMOUTH,,15,-6,19910804-20240401, 88.7%,20071202-20240401, 96.3%,20160131-20240401,100.0%
USC00115825,41.3713,-88.4332,159.7,IL,MORRIS 1NW,,15,-6,19951101-20240401, 86.5%,20100115-20240401, 99.8%,20170222-20240401, 99.8%
USC00115841,39.4157,-89.4615,192.0,IL,MORRISONVILLE,,15,-6,19480701-20240404, 95.1%,19860518-20240404, 96.0%,20050426-20240404, 97.4%
USC00115876,40.6005,-89.4653,213.7,IL,MORTON,,15,-6,20190525-20240401, 99.8%,20211027-20240401, 99.7%,20230113-20240401, 99.8%
USC00115943,38.3620,-88.8598,149.4,IL,MT VERNON 3 NE,,15,-6,20210610-20240401, 88.5%,20221105-20240401, 88.7%,20230719-20240401, 99.6%
USC00115983,37.7667,-89.3167,128.0,IL,MURPHYSBORO WATERWORKS,,15,-6,19480701-20240304, 92.9%,19860503-20240304, 88.0%,20050403-20240304, 85.0%
USC00116157,38.9916,-88.1828,161.8,IL,NEWTON,,15,-6,20030801-20240409, 98.3%,20131204-20240409, 99.9%,20190205-20240409, 99.9%
USC00116610,39.6185,-87.6672,197.8,IL,PARIS STP,,15,-6,19930301-20240417, 90.0%,20080923-20240417, 94.4%,20160705-20240417, 99.8%
USC00116738,39.8058,-90.8238,198.1,IL,PERRY 6 NW,,15,-6,20201021-20240403, 95.5%,20220713-20240403, 90.8%,20230524-20240403, 92.7%
USC00116819,40.7569,-88.1827,204.2,IL,PIPER CITY,,15,-6,19490201-20121214, 89.6%,19810107-20121214, 83.7%,19961226-20121214, 79.5%
USC00117014,41.6752,-89.9374,184.4,IL,PROPHETSTOWN,,15,-6,19480701-20240412, 96.1%,19860522-20240412, 94.3%,20050502-20240412, 98.1%
USC00117077,39.9036,-91.4283,147.2,IL,QUINCY DAM 21,,15,-6,19480701-20240314, 85.6%,19860508-20240314, 75.1%,20050410-20240314, 70.4%
USW00014806,40.3131,-88.1596,230.1,IL,RANTOUL,,15,-6,19480701-20240410, 89.7%,19860521-20240410, 93.4%,20050430-20240410, 97.5%
USC00117187,38.0405,-88.9883,138.7,IL,REND LAKE DAM,,15,-6,19720301-20240301, 78.8%,19980301-20240301, 71.2%,20110301-20240301, 89.1%
USC00117391,41.5180,-90.5647,173.1,IL,ROCK ISLAND L&D 15,,15,-6,19850726-20240402, 91.9%,20041128-20240402, 94.9%,20140731-20240402, 99.9%
USC00117457,41.6041,-88.0850,201.2,IL,ROMEOVILLE WFO,,15,-6,20121010-20240410, 98.1%,20180711-20240410, 98.9%,20210526-20240410, 99.4%
USC00117833,41.7327,-88.8643,259.1,IL,SHABBONA 3S,,15,-6,19531201-20240408, 54.5%,19890203-20240408, 64.1%,20060906-20240408, 95.2%
USC00117876,39.4079,-88.7739,198.1,IL,SHELBYVILLE DAM,,15,-6,19700701-20240401, 82.9%,19970516-20240401, 84.5%,20101023-20240401, 86.1%
USC00118020,37.1644,-88.4311,108.8,IL,SMITHLAND LOCK & DAM,,15,-6,19801001-20240304, 86.9%,20020618-20240304, 89.7%,20130426-20240304, 97.8%
USC00118204,40.4927,-90.0470,190.5,IL,ST. DAVID,,15,-6,20120507-20141029, 99.0%,20130802-20141029, 99.3%,20140316-20141029, 98.7%
USC00118389,39.5608,-88.6090,195.1,IL,SULLIVAN 3S,,15,-6,19480701-20240410, 89.7%,19860521-20240410, 87.4%,20050430-20240410, 90.4%
USC00118740,40.0841,-88.2404,220.1,IL,CHAMPAIGN 3S,,15,-6,19590101-20240408, 95.3%,19910820-20240408, 95.8%,20071214-20240408, 97.7%
USC00118781,38.9579,-89.0952,149.4,IL,VANDALIA,,15,-6,19480701-20240402, 85.0%,19860517-20240402, 87.3%,20050424-20240402, 90.5%
USC00118916,41.5519,-89.5990,213.4,IL,WALNUT,,15,-6,20050601-20240402, 96.7%,20141101-20240402,100.0%,20190718-20240402, 99.9%
USC00119021,40.7940,-87.7546,191.4,IL,WATSEKA 2NW,,15,-6,20130519-20240406, 91.2%,20181027-20240406, 85.6%,20210717-20240406, 74.3%
USC00119193,38.5250,-88.0130,135.6,IL,WEST SALEM,,15,-6,19710201-20240308, 78.5%,19970820-20240308, 66.5%,20101128-20240308, 48.1%
USC00119816,40.7779,-90.0073,203.9,IL,YATES CITY,,15,-6,19501201-20240401, 88.5%,19870801-20240401, 84.5%,20051130-20240401, 86.2%
USC00120132,39.5739,-85.1582,233.8,IN,ALPINE 2 NE,,15,-5,19490201-20240405, 94.0%,19860903-20240405, 88.9%,20050619-20240405, 82.1%
USC00120177,40.1167,-85.6813,256.9,IN,ANDERSON 1 N,,15,-5,19740716-20221011, 87.6%,19980828-20221011, 88.4%,20100919-20221011, 90.8%
USC00120200,41.6639,-85.0183,310.9,IN,ANGOLA,,15,-5,19770512-20240409, 89.3%,20001025-20240409, 89.1%,20120717-20240409, 94.4%
USC00120482,39.2967,-85.2187,295.7,IN,BATESVILLE WATER AND GAS UTILITY,,15,-5,19480701-20240401, 93.3%,19860517-20240401, 88.9%,20050424-20240401, 82.3%
USC00120830,40.8143,-85.1546,262.4,IN,BLUFFTON 6N,,15,-5,19710701-20240202, 89.3%,19971016-20240202, 89.5%,20101209-20240202, 82.9%
USC00120922,39.5108,-87.1241,207.0,IN,BRAZIL,,15,-5,19480701-20240401, 93.8%,19860517-20240401, 95.6%,20050424-20240401, 94.5%
USC00121147,40.4835,-86.3961,233.2,IN,BURLINGTON,,15,-5,19501103-20240402, 94.8%,19870719-20240402, 93.9%,20051124-20240402, 95.3%
USC00121256,37.8994,-86.7072,122.5,IN,CANNELTON,,15,-5,19711001-20240401, 82.8%,19971231-20240401, 77.8%,20110215-20240401, 90.9%
USC00121417,40.6653,-86.9550,219.5,IN,CHALMERS 5 W,,15,-5,20080801-20240401, 92.1%,20160601-20240401, 91.1%,20200501-20240401, 99.9%
USC00121739,41.1452,-85.4898,254.2,IN,COLUMBIA CITY,,15,-5,19480701-20240401, 88.2%,19860517-20240401, 80.5%,20050424-20240401, 78.6%
USC00121752,39.2106,-85.8883,193.5,IN,COLUMBUS UTILITIES,,15,-5,19480701-20240401, 82.9%,19860517-20240401, 84.2%,20050424-20240401, 77.7%
USC00121873,40.0028,-86.8011,254.8,IN,CRAWFORDSVILLE 6 SE,,15,-5,19880201-20240402, 86.5%,20060303-20240402, 88.1%,20150318-20240402, 86.5%
USC00122309,38.4558,-86.6983,210.3,IN,DUBOIS SRN IN FORAGE FARM,,15,-5,19570101-20240401, 80.5%,19900817-20240401, 78.5%,20070609-20240401, 82.1%
USC00122620,38.8701,-87.0917,146.3,IN,ELNORA,,15,-5,20120420-20240401, 97.9%,20180411-20240401, 98.4%,20210406-20240401, 98.7%
USC00122825,40.2538,-85.1484,294.1,IN,FARMLAND 5 NNW,,15,-5,19490301-20240402, 90.9%,19860916-20240402, 93.4%,20050624-20240402, 97.2%
USC00123082,40.2986,-86.5066,251.2,IN,FRANKFORT DISPOSAL,,15,-5,19800601-20240402, 83.7%,20020502-20240402, 74.0%,20130417-20240402, 68.5%
USC00123091,39.4684,-86.0412,219.5,IN,FRANKLIN WWTP,,15,-5,20010801-20240402, 93.0%,20121201-20240402, 94.8%,20180802-20240402, 97.9%
USC00123104,38.8672,-87.3083,167.6,IN,FREELANDVILLE,,15,-5,19850404-20140204, 93.9%,19990904-20140204, 92.9%,20061119-20140204, 93.4%
USC00123206,41.3415,-85.1292,268.2,IN,GARRETT,,15,-5,19601205-20240401, 91.8%,19920803-20240401, 91.3%,20080602-20240401, 88.9%
USC00123418,41.5575,-85.8825,266.7,IN,GOSHEN 3SW,,15,-5,19611101-20240409, 93.1%,19930119-20240409, 96.2%,20080829-20240409, 99.3%
USC00123714,38.1975,-86.2686,259.1,IN,HARRISON-CRAWFORD S F,,15,-5,19740806-20240416, 83.2%,19990611-20240416, 81.1%,20111113-20240416, 89.3%
USC00123777,40.4355,-85.2891,281.6,IN,HARTFORD CITY 4 ESE,,15,-5,19480701-20240402, 88.5%,19860517-20240402, 82.8%,20050424-20240402, 95.2%
USC00124181,40.8560,-85.4988,222.8,IN,HUNTINGTON,,15,-5,19480701-20240402, 88.8%,19860517-20240402, 87.6%,20050424-20240402, 88.7%
USC00124286,39.7690,-86.1850,213.7,IN,INDIANAPOLIS ZOO,,15,-5,19910501-20240405, 87.1%,20071018-20240405, 83.7%,20160111-20240405, 99.5%
USC00124730,41.6474,-85.4121,274.3,IN,LAGRANGE,,15,-5,19620602-20151202, 81.1%,19890302-20151202, 72.0%,20020717-20151202, 53.7%
USC00124782,41.5269,-86.2692,256.3,IN,LAKEVILLE,,15,-5,19480701-20240401, 93.4%,19860517-20240401, 91.4%,20050424-20240401, 93.8%
USC00124837,41.6116,-86.7297,246.6,IN,LAPORTE,,15,-6,19780401-20240407, 81.7%,20010404-20240407, 79.9%,20121005-20240407, 91.3%
USC00124908,40.0516,-86.4750,282.9,IN,LEBANON WATER WORKS,,15,-5,19480701-20240405, 94.3%,19860519-20240405, 92.0%,20050427-20240405, 89.3%
USC00124973,39.8208,-85.3243,335.3,IN,LEWISVILLE,,15,-5,19480701-20240401, 96.0%,19860517-20240401, 96.8%,20050424-20240401, 98.6%
USC00125337,40.5800,-85.6586,240.8,IN,MARION 2 N,,15,-5,19530613-20240401, 92.5%,19881106-20240401, 89.2%,20060720-20240401, 86.6%
USC00125394,39.8438,-87.1875,215.8,IN,MARSHALL,,15,-5,20020101-20240401, 96.4%,20130215-20240401, 97.1%,20180908-20240401, 94.8%
USC00125407,39.4043,-86.4526,180.4,IN,MARTINSVILLE 2 SW,,15,-5,19620618-20240401, 83.6%,19930510-20240401, 81.3%,20081020-20240401, 74.5%
USC00125535,41.1588,-86.9013,211.8,IN,MEDARYVILLE 5 N,,15,-5,19480701-20171001, 86.4%,19830215-20171001, 82.5%,20000608-20171001, 84.0%
USC00126151,37.9325,-87.3744,115.8,IN,NEWBURGH LOCK & DAM,,15,-6,19611201-20240304, 84.9%,19930116-20240304, 83.8%,20080810-20240304, 95.0%
USC00126864,40.7646,-86.0740,201.2,IN,PERU,,15,-5,19480701-20240401, 85.4%,19860517-20240401, 80.8%,20050424-20240401, 78.7%
USC00127069,40.4667,-84.9667,-999.9,IN,PORTLAND WATER WORKS,,15,-5,19480701-20231010, 81.4%,19860219-20231010, 82.3%,20041214-20231010, 73.5%
USC00127298,40.9239,-87.1754,200.6,IN,RENSSELAER WWTP,,15,-6,19700605-20240405, 77.3%,19970505-20240405, 79.8%,20101020-20240405, 98.3%
USC00127482,41.0665,-86.2096,231.6,IN,ROCHESTER,,15,-5,19481013-20240401, 85.1%,19860708-20240401, 87.5%,20050520-20240401, 90.2%
USC00127930,38.9616,-85.8608,182.9,IN,SEYMOUR HIWAY GARAGE,,15,-5,19480701-20220411, 91.6%,19850521-20220411, 92.9%,20031031-20220411, 91.4%
USC00127935,38.9543,-85.9045,172.8,IN,SEYMOUR 1 WSW,,15,-5,20190927-20240108, 76.0%,20211117-20240108, 92.8%,20221213-20240108, 96.9%
USC00127999,39.5282,-85.7914,229.2,IN,SHELBYVILLE SEWAGE PLANT,,15,-5,19710101-20240401, 83.7%,19970816-20240401, 91.1%,20101208-20240401, 89.3%
USC00128036,38.5529,-86.7944,145.4,IN,SHOALS 8 S,,15,-5,19480701-20240404, 97.1%,19860518-20240404, 96.6%,20050426-20240404, 96.9%
USC00128442,38.2671,-87.1430,198.1,IN,STENDAL,,15,-5,19951101-20201103, 67.1%,20080503-20201103, 91.2%,20140803-20201103, 98.8%
USC00128784,40.2233,-86.1086,271.3,IN,TIPTON 5 SW,,15,-5,19830501-20240401, 93.8%,20031016-20240401, 94.3%,20140107-20240401, 94.9%
USC00128967,37.7952,-87.9930,103.6,IN,J.T. MYERS LOCKS & DAM,,15,-6,19740911-20240304, 78.7%,19990608-20240304, 80.3%,20111021-20240304, 96.2%
USC00128992,41.5436,-87.0319,264.9,IN,VALPARAISO 5NNE,,15,-6,20051203-20140501, 84.1%,20100215-20140501, 99.9%,20120324-20140501, 99.9%
USC00129174,39.4538,-85.6963,251.8,IN,WALDRON 2 W,,15,-5,19501205-20240405, 90.6%,19870805-20240405, 90.3%,20051204-20240405, 91.6%
USC00129430,40.4750,-86.9919,215.8,IN,WEST LAFAYETTE 6 NW,,15,-5,19530808-20240404, 93.5%,19881205-20240404, 93.1%,20060805-20240404, 97.8%
USC00129724,41.1645,-84.8482,216.4,IN,WOODBURN 3N,,15,-5,20090112-20211105, 91.9%,20150610-20211105, 93.4%,20180823-20211105, 86.8%
USC00130149,40.7039,-93.3703,332.2,IA,ALLERTON,,15,-6,19480801-20240404, 34.1%,19860603-20240404, 61.7%,20050504-20240404, 93.2%
USC00130200,42.0210,-93.7743,338.3,IA,AMES 8 WSW,,15,-6,19640906-20240401, 94.3%,19940619-20240401, 93.0%,20090510-20240401, 98.0%
USC00130364,41.4175,-95.0041,351.1,IA,ATLANTIC 1 NE,,15,-6,19510108-20240401, 88.4%,19870820-20240401, 87.9%,20051210-20240401, 96.5%
USC00130536,40.8570,-94.0494,349.9,IA,BEACONSFIELD 3N,,15,-6,19690709-20220301, 89.4%,19951104-20220301, 88.9%,20090101-20220301, 93.4%
USC00130608,42.2611,-90.4231,183.8,IA,BELLEVUE L AND D 12,,15,-6,19480811-20240401, 93.0%,19860606-20240401, 89.1%,20050504-20240401, 98.4%
USC00130853,42.1255,-95.1886,453.2,IA,BOYER 4 SE,,15,-6,19501001-20240401, 91.0%,19870702-20240401, 90.4%,20051115-20240401, 94.1%
USC00131060,40.7747,-91.1165,210.3,IA,BURLINGTON 2S,,15,-6,19641216-20240406, 82.7%,19940811-20240406, 78.7%,20090608-20240406, 84.4%
USC00131126,43.1876,-91.8620,376.4,IA,CALMAR NE,,15,-6,20090203-20240403, 97.4%,20160903-20240403, 99.2%,20200618-20240403, 99.9%
USC00131245,41.2738,-95.4025,332.2,IA,CARSON 3NNE,,15,-6,19501001-20240304, 95.6%,19870618-20240304, 93.4%,20051025-20240304, 93.9%
USC00131257,42.2979,-91.0116,248.1,IA,CASCADE,,15,-6,19480801-20240404, 95.1%,19860603-20240404, 92.8%,20050504-20240404, 97.9%
USC00131354,40.6833,-92.9000,310.9,IA,CENTERVILLE 4 SSW,,15,-6,19480801-20240403, 90.4%,19860602-20240403, 91.2%,20050503-20240403, 91.6%
USC00131363,42.2001,-91.5233,252.4,IA,CENTRAL CITY,,15,-6,19551217-20240401, 87.4%,19900207-20240401, 86.2%,20070306-20240401, 99.2%
USC00131442,42.7833,-95.5500,381.0,IA,CHEROKEE 3 N,,15,-6,19480801-20240403, 37.9%,19860602-20240403, 61.0%,20050503-20240403, 99.3%
USC00132041,42.7255,-94.1952,338.3,IA,DAKOTA CITY,,15,-6,20091102-20230105, 90.3%,20160604-20230105, 99.9%,20190920-20230105, 99.9%
USC00132240,41.5077,-94.2269,339.9,IA,DEXTER,,15,-6,19480801-20230801, 82.9%,19860130-20230801, 77.1%,20041030-20230801, 94.0%
USC00132977,43.2844,-93.6305,390.1,IA,FOREST CITY 2 NNE,,15,-6,19480801-20240402, 78.1%,19860602-20240402, 82.3%,20050502-20240402, 80.7%
USC00133473,41.7196,-92.7502,278.9,IA,GRINNELL 3 SW,,15,-6,19480801-20240401, 85.4%,19860601-20240401, 84.3%,20050501-20240401, 81.9%
USC00133944,42.1558,-96.0830,326.1,IA,HORNICK 5S,,15,-6,19480801-20180424, 85.0%,19830613-20180424, 91.2%,20001117-20180424, 93.5%
USC00134101,41.6093,-91.5051,195.1,IA,IOWA CITY,,15,-6,19790901-20240403, 89.1%,20011217-20240403, 91.5%,20130208-20240403, 99.7%
USC00134142,42.5188,-93.2536,321.6,IA,IOWA FALLS,,15,-6,19480801-20230407, 92.9%,19851203-20230407, 92.6%,20040804-20230407, 95.9%
USC00134174,41.7750,-95.1525,419.7,IA,IRWIN 3 ESE,,15,-6,19501001-20240305, 95.7%,19870618-20240305, 93.3%,20051026-20240305, 94.9%
USC00134381,40.3968,-91.3749,160.6,IA,KEOKUK LOCK DAM 19,,15,-6,19480801-20240401, 92.6%,19860601-20240401, 89.8%,20050501-20240401, 98.3%
USC00134502,41.3247,-93.1008,272.8,IA,KNOXVILLE,,15,-6,19480801-20230320, 83.9%,19851124-20230320, 82.8%,20040722-20230320, 86.7%
USC00134585,40.6233,-93.9343,343.8,IA,LAMONI,,15,-6,19480801-20230901, 68.1%,19860215-20230901, 84.8%,20041123-20230901, 97.5%
USC00134746,40.8747,-94.5717,383.1,IA,LENOX,,15,-6,19480801-20240408, 91.3%,19860605-20240408, 93.3%,20050507-20240408, 94.7%
USC00134963,41.8604,-90.9222,224.9,IA,LOWDEN,,15,-6,19870625-20240401, 95.6%,20051112-20240401, 95.2%,20150121-20240401, 99.9%
USC00135198,42.0647,-92.9244,265.2,IA,MARSHALLTOWN,,15,-6,19480801-20240402, 93.0%,19860602-20240402, 89.0%,20050502-20240402, 96.0%
USC00135315,43.0240,-91.1746,191.1,IA,MCGREGOR,,15,-6,19511005-20240401, 95.2%,19880102-20240401, 96.3%,20060215-20240401, 98.7%
USC00135584,41.5500,-95.9333,307.8,IA,MISSOURI VALLEY 2 WSW,,15,-6,19480801-20240305, 87.3%,19860519-20240305, 85.3%,20050411-20240305, 95.9%
USC00135769,40.7052,-94.2427,347.5,IA,MOUNT AYR,,15,-6,19480801-20240401, 86.9%,19860601-20240401, 85.0%,20050501-20240401, 92.2%
USC00135796,40.9601,-91.5851,220.7,IA,MOUNT PLEASANT 1 SW,,15,-6,19480801-20240401, 85.6%,19860601-20240401, 75.2%,20050501-20240401, 63.1%
USC00135823,42.4916,-96.0688,365.8,IA,MOVILLE,,15,-6,19480801-20240401, 90.0%,19860601-20240401, 89.3%,20050501-20240401, 90.8%
USC00136076,41.5170,-92.0597,242.9,IA,NORTH ENGLISH,,15,-6,19480801-20240403, 84.6%,19860602-20240403, 80.8%,20050503-20240403, 96.2%
USC00136190,43.4144,-95.5313,381.0,IA,OCHEYEDAN,,15,-6,20051201-20130901, 96.0%,20091016-20130901, 95.8%,20110924-20130901, 95.3%
USC00136975,42.8170,-95.9708,403.9,IA,REMSEN,,15,-6,19480801-20240404, 97.0%,19860603-20240404, 96.5%,20050504-20240404, 95.0%
USC00137058,43.2957,-94.5108,388.6,IA,RINGSTED,,15,-6,19480814-20240401, 90.9%,19860608-20240401, 93.7%,20050505-20240401, 96.9%
USC00137326,43.3817,-92.9232,347.2,IA,ST ANSGAR,,15,-6,19480809-20240405, 93.0%,19860607-20240405, 93.3%,20050506-20240405, 99.0%
USC00137340,41.2875,-93.8078,323.7,IA,ST CHARLES,,15,-6,19480801-20221005, 90.2%,19850902-20221005, 94.5%,20040319-20221005, 96.5%
USC00137572,42.9216,-93.2827,349.0,IA,SHEFFIELD 3 NW,,15,-6,19480801-20240403, 92.5%,19860602-20240403, 92.9%,20050503-20240403, 96.4%
USC00137582,41.5114,-95.4406,399.9,IA,SHELBY,,15,-6,19501001-20240315, 91.0%,19870623-20240315, 89.8%,20051102-20240315, 94.3%
USC00137602,42.7042,-92.5906,284.4,IA,SHELL ROCK 1 SW,,15,-6,19480801-20240302, 93.3%,19860517-20240302, 93.8%,20050409-20240302, 99.2%
USC00137613,40.7717,-95.3738,295.4,IA,SHENANDOAH,,15,-6,20031122-20240304, 68.8%,20140112-20240304, 96.6%,20190207-20240304, 96.4%
USC00137664,43.4023,-95.7499,467.0,IA,SIBLEY,,15,-6,19910101-20240405, 72.3%,20070819-20240405, 64.8%,20151212-20240405, 99.9%
USC00137700,43.0558,-96.1525,414.5,IA,SIOUX CENTER 2 SE,,15,-6,19480801-20240401, 92.5%,19860601-20240401, 96.1%,20050501-20240401, 98.1%
USC00137774,41.9811,-95.7769,342.9,IA,SOLDIER,,15,-6,19480801-20240319, 91.0%,19860526-20240319, 85.3%,20050422-20240319, 92.7%
USC00137844,43.1652,-95.1466,404.2,IA,SPENCER 1 N,,15,-6,19480901-20240326, 49.3%,19860614-20240326, 62.3%,20050505-20240326, 71.2%
USC00138009,42.6853,-91.5330,365.8,IA,STRAWBERRY POINT,,15,-6,19480806-20240402, 94.2%,19860604-20240402, 90.8%,20050503-20240402, 97.3%
USC00138315,42.1865,-92.4722,285.0,IA,TRAER,,15,-6,19480801-20240401, 95.3%,19860601-20240401, 91.7%,20050501-20240401, 92.5%
USC00138646,41.0458,-95.0869,390.8,IA,STANTON 4N,,15,-6,19480801-20240301, 91.7%,19860517-20240301, 95.5%,20050408-20240301, 96.0%
USC00138688,41.2824,-91.7078,209.4,IA,WASHINGTON,,15,-6,19480801-20240401, 94.5%,19860601-20240401, 91.7%,20050501-20240401, 96.7%
USC00138806,42.4685,-93.7974,326.7,IA,WEBSTER CITY,,15,-6,19480801-20240404, 90.6%,19860603-20240404, 85.2%,20050504-20240404, 94.9%
USC00139164,41.7450,-95.7091,332.2,IA,WOODBINE,,15,-6,19480801-20120801, 93.0%,19800801-20120801, 94.6%,19960801-20120801, 92.5%
USC00139165,41.7590,-95.6440,368.8,IA,WOODBINE 4ENE,,15,-6,20120807-20240319, 93.5%,20180529-20240319, 93.9%,20210423-20240319, 93.9%
USC00140326,37.8894,-98.1785,483.1,KS,ARLINGTON,,15,-6,19781025-20240403, 82.0%,20010714-20240403, 83.9%,20121122-20240403, 73.0%
USC00140441,39.6980,-101.0039,903.4,KS,ATWOOD 8SSE,,15,-6,19640422-20190213, 77.2%,19910918-20190213, 72.6%,20050601-20190213, 74.9%
USC00140637,37.6557,-96.5352,484.6,KS,BEAUMONT,,15,-6,19480801-20240418, 91.0%,19860610-20240418, 93.2%,20050514-20240418, 95.5%
USC00140750,37.8923,-97.4827,420.6,KS,BENTLEY 2E,,15,-6,20120401-20240401, 98.7%,20180401-20240401, 98.0%,20210401-20240401, 96.4%
USC00140957,39.0636,-94.8960,259.1,KS,BONNER SPRINGS,,15,-6,19880301-20211201, 80.1%,20050115-20211201, 75.7%,20130624-20211201, 97.1%
USC00141233,37.0326,-97.6155,346.9,KS,CALDWELL,,15,-6,19480801-20211207, 93.4%,19850404-20211207, 94.3%,20030806-20211207, 91.7%
USC00141351,38.0212,-96.6036,463.3,KS,CASSODAY 2SE,,15,-6,19480801-20220602, 93.7%,19850702-20220602, 92.3%,20031217-20220602, 90.7%
USC00141404,38.1937,-95.0724,289.6,KS,CENTERVILLE 4SW,,15,-6,19941201-20240401, 81.4%,20090801-20240401, 78.7%,20161130-20240401, 98.7%
USC00141612,38.9407,-95.3396,298.7,KS,CLINTON LAKE,,15,-6,19770413-20240202, 89.1%,20000907-20240202, 88.4%,20120521-20240202, 88.6%
USC00141699,39.3925,-101.0689,966.2,KS,COLBY 1SW,,15,-6,19500101-20240401, 88.5%,19870215-20240401, 86.9%,20050908-20240401, 94.4%
USC00141730,38.8971,-100.1135,733.7,KS,COLLYER 10 S,,15,-6,19490801-20240407, 94.5%,19861204-20240407, 93.5%,20050805-20240407, 95.9%
USC00141740,37.2500,-94.8667,274.9,KS,COLUMBUS 6 NNW,,15,-6,19480801-20240401, 94.6%,19860601-20240401, 94.5%,20050501-20240401, 96.0%
USC00142432,37.0833,-101.8500,1096.1,KS,ELKHART 6 NNE,,15,-6,19490101-20240405, 64.5%,19860819-20240405, 87.6%,20050612-20240405, 99.2%
USC00142560,37.0459,-99.9964,600.5,KS,ENGLEWOOD 1 NW,,15,-6,19480801-20081021, 94.0%,19780911-20081021, 90.6%,19931001-20081021, 95.0%
USC00142582,37.5668,-95.2458,273.4,KS,ERIE,,15,-6,19970901-20240401, 95.7%,20101216-20240401, 98.6%,20170808-20240401, 99.8%
USC00142686,37.6475,-96.0780,314.2,KS,FALL RIVER LAKE,,15,-6,19481101-20240403, 95.0%,19860718-20240403, 92.0%,20050526-20240403, 93.0%
USC00142835,37.8172,-94.6987,269.4,KS,FORT SCOTT,,15,-6,20200914-20240404, 99.8%,20220625-20240404, 99.7%,20230515-20240404, 99.4%
USC00142938,38.6366,-98.8722,597.4,KS,GALATIA 4E,,15,-6,19821101-20240402, 85.6%,20030718-20240402, 89.4%,20131124-20240402, 84.7%
USC00142980,37.9930,-100.8121,880.9,KS,GARDEN CITY EXP STA,,15,-6,19480801-20240402, 92.1%,19860602-20240402, 90.1%,20050502-20240402, 93.7%
USC00143248,37.3594,-96.4496,353.3,KS,GRENOLA 1 N,,15,-6,19480801-20240415, 92.1%,19860608-20240415, 91.5%,20050512-20240415, 88.9%
USC00143527,38.8586,-99.3358,612.6,KS,HAYS 1 S,,15,-6,19480801-20240405, 92.7%,19860603-20240405, 91.9%,20050504-20240405, 92.3%
USC00143554,38.6002,-100.6196,868.7,KS,HEALY,,15,-6,19480801-20240401, 87.2%,19860601-20240401, 84.5%,20050501-20240401, 99.9%
USC00143634,39.7833,-95.5167,353.6,KS,HIAWATHA 5 SSE,,15,-6,20200617-20231018, 95.6%,20220216-20231018, 94.9%,20221217-20231018, 99.7%
USC00143665,39.3618,-99.8279,649.8,KS,HILL CITY 1E,,15,-6,19831001-20240411, 86.6%,20040105-20240411, 93.6%,20140222-20240411, 97.2%
USC00143686,38.6645,-94.8901,307.8,KS,HILLSDALE LAKE,,15,-6,19851126-20240402, 85.5%,20050128-20240402, 91.0%,20140831-20240402, 96.3%
USC00143954,37.2363,-95.7002,245.4,KS,INDEPENDENCE,,15,-6,19970602-20240401, 96.2%,20101101-20240401, 96.8%,20170717-20240401, 99.7%
USC00143984,37.9233,-95.4241,290.8,KS,IOLA 1 W,,15,-6,19510101-20240415, 78.9%,19870824-20240415, 91.7%,20051219-20240415, 96.8%
USC00143997,39.6611,-98.3483,468.5,KS,IONIA,,15,-6,19480801-20240401, 95.1%,19860601-20240401, 97.7%,20050501-20240401, 99.0%
USC00144178,38.6078,-97.9596,454.8,KS,KANOPOLIS LAKE,,15,-6,19480801-20240401, 93.8%,19860601-20240401, 92.1%,20050501-20240401, 96.4%
USC00144341,37.0174,-98.4899,403.9,KS,KIOWA,,15,-6,19480801-20240406, 94.1%,19860604-20240406, 93.7%,20050505-20240406, 99.8%
USC00144370,39.0479,-95.1929,332.2,KS,KU-FIELD STATION,,15,-6,20191025-20240301, 97.5%,20211227-20240301, 95.0%,20230128-20240301, 90.0%
USC00145039,38.3781,-97.0752,418.5,KS,MARION RESERVOIR,,15,-6,19660511-20230103, 91.2%,19940906-20230103, 95.9%,20081104-20230103, 97.8%
USC00145210,38.5039,-95.7037,333.5,KS,MELVERN LAKE,,15,-6,19730401-20240301, 89.4%,19980915-20240301, 89.3%,20110608-20240301, 96.7%
USC00145306,39.0745,-96.8982,369.7,KS,MILFORD LAKE,,15,-6,19670711-20240301, 86.0%,19951105-20240301, 81.3%,20100102-20240301, 95.7%
USC00145536,37.1880,-95.4503,242.0,KS,MOUND VALLEY 3 WSW,,15,-6,19571004-20240401, 95.8%,19910102-20240401, 96.0%,20070817-20240401, 97.5%
USC00145787,39.8135,-100.2417,792.8,KS,NORCATUR 3 WSW,,15,-6,19480801-20240402, 92.4%,19860602-20240402, 88.4%,20050502-20240402, 91.2%
USC00145852,39.8114,-99.9386,715.1,KS,NORTON DAM,,15,-6,19630403-20240404, 81.8%,19931003-20240404, 78.7%,20090102-20240404, 85.3%
USC00145888,39.1130,-100.9447,945.5,KS,OAKLEY 4W,,15,-6,19490801-20240401, 90.6%,19861201-20240401, 88.2%,20050801-20240401, 94.3%
USC00146333,39.1174,-95.4101,291.7,KS,PERRY LAKE,,15,-6,19700209-20240131, 83.4%,19970204-20240131, 70.9%,20100803-20240131, 62.6%
USC00146374,39.7667,-99.3167,595.0,KS,PHILLIPSBURG,,15,-6,19480801-20240422, 92.2%,19860612-20240422, 88.6%,20050517-20240422, 96.6%
USC00146498,38.6449,-95.5660,324.0,KS,POMONA LAKE,,15,-6,19630708-20240301, 88.2%,19931103-20240301, 80.0%,20090101-20240301, 90.3%
USC00147546,38.7056,-97.8461,438.9,KS,SMOKY HILL AIR NATIONAL GUARD RANGE,,15,-6,20110901-20171205, 94.5%,20141018-20171205, 99.9%,20160512-20171205, 99.8%
USC00147756,38.7814,-94.6689,326.4,KS,STILWELL 1N,,15,-6,19821001-20230914, 88.7%,20030324-20230914, 83.5%,20130618-20230914, 98.2%
USC00147922,37.4415,-100.9793,898.9,KS,SUBLETTE 7WSW,,15,-6,19580224-20240419, 87.9%,19910323-20240419, 93.3%,20071005-20240419, 99.3%
USC00148235,38.4661,-101.7730,1107.6,KS,TRIBUNE 1W,,15,-7,19480801-20240401, 89.5%,19860601-20240401, 85.1%,20050501-20240401, 86.8%
USC00148250,39.8281,-95.0875,315.5,KS,TROY 3N,,15,-6,19880322-20240405, 89.4%,20060329-20240405, 91.4%,20150402-20240405, 99.6%
USC00148293,37.8488,-94.9765,274.3,KS,UNIONTOWN,,15,-6,19821013-20160803, 87.7%,19990908-20160803, 87.9%,20080220-20160803, 86.5%
USC00148535,38.9167,-101.5833,1010.1,KS,WALLACE,,15,-7,19480901-20240403, 90.2%,19860618-20240403, 86.6%,20050511-20240403, 86.5%
USC00148847,37.6552,-97.4430,406.6,KS,WICHITA WX,,15,-6,20100501-20240403, 95.8%,20170417-20240403, 94.4%,20201009-20240403, 90.8%
USC00148946,38.9667,-98.4890,460.9,KS,WILSON LAKE,,15,-6,19640923-20240401, 90.7%,19940628-20240401, 91.5%,20090515-20240401, 92.5%
USC00150381,36.8825,-83.8819,301.8,KY,BARBOURVILLE,,15,-5,19480801-20160916, 78.5%,19820824-20160916, 62.9%,19990905-20160916, 63.4%
USC00150450,36.8582,-83.3302,354.8,KY,BAXTER,,15,-5,19480801-20160101, 72.6%,19820417-20160101, 57.3%,19990223-20160101, 58.5%
USC00150611,36.8580,-88.3363,111.3,KY,BENTON,,15,-6,19480801-20240304, 84.2%,19860518-20240304, 85.1%,20050410-20240304, 91.6%
USC00151227,37.5531,-87.1924,121.3,KY,CALHOUN 4ENE,,15,-6,19561001-20230601, 80.5%,19900130-20230601, 79.9%,20060930-20230601, 88.5%
USC00151631,36.6833,-89.0000,121.9,KY,CLINTON,,15,-6,19480801-20220817, 88.4%,19850809-20220817, 88.2%,20040212-20220817, 84.5%
USC00152775,38.6873,-84.3585,249.6,KY,FALMOUTH,,15,-5,19750201-20240401, 48.8%,19990901-20240401, 30.8%,20111216-20240401, 61.7%
USC00152776,38.6018,-84.3006,239.6,KY,FALMOUTH5 SSE,,15,-5,20150506-20160722, 77.9%,20151213-20160722, 56.5%,20160402-20160722, 83.9%
USC00152979,37.6364,-86.7243,137.2,KY,FORDSVILLE,,15,-6,19710501-20240408, 88.5%,19971019-20240408, 86.6%,20110113-20240408, 94.2%
USC00153194,38.2094,-84.5621,245.4,KY,GEORGETOWN WATER WKS,,15,-5,20130612-20240409, 92.3%,20181110-20240409, 84.6%,20210725-20240409, 96.1%
USC00153744,37.5787,-83.7659,350.5,KY,HEIDELBERG 2N,,15,-5,20071104-20110802, 93.0%,20090917-20110802, 99.2%,20100825-20110802, 98.7%
USC00153798,36.6702,-87.5588,170.7,KY,HERNDON 5S,,15,-6,19480801-20240301, 84.5%,19860517-20240301, 72.2%,20050408-20240301, 86.4%
USC00153929,37.5316,-85.7350,240.2,KY,HODGENVILLE LINCOLN P,,15,-5,19480801-20200901, 81.5%,19840816-20200901, 70.2%,20020824-20200901, 59.9%
USC00154948,38.1250,-82.6934,233.8,KY,LOUISA 5W,,15,-5,19961204-20240403, 86.9%,20100804-20240403, 94.1%,20170603-20240403, 96.3%
USC00154955,38.2778,-85.7917,134.1,KY,LOUISVILLE MCALPINE,,15,-5,19820701-20221220, 80.1%,20020925-20221220, 76.2%,20121106-20221220, 91.3%
USC00155067,37.3475,-87.5238,129.5,KY,MADISONVILLE,,15,-6,19490301-20240201, 86.9%,19860816-20240201, 79.6%,20050509-20240201, 80.1%
USC00155243,38.6869,-83.7872,157.0,KY,MAYSVILLE WASTEWATER TREATMENT PLANT,,15,-5,19480801-20240401, 69.8%,19860601-20240401, 60.3%,20050501-20240401, 64.2%
USC00156012,38.3423,-83.1038,270.7,KY,OLIVE HILL 5NE,,15,-5,19480801-20240103, 64.8%,19860418-20240103, 60.7%,20050224-20240103, 45.0%
USC00156170,38.2052,-84.2382,242.3,KY,PARIS,,15,-5,19711101-20240401, 85.5%,19980115-20240401, 90.0%,20110222-20240401, 93.6%
USC00157215,36.7462,-86.2259,226.5,KY,SCOTTSVILLE,,15,-6,19841001-20240415, 56.5%,20040708-20240415, 29.6%,20140527-20240415, 59.2%
USC00157473,38.3409,-85.2799,259.1,KY,SMITHFIELD 4 S,,15,-5,19480801-20240401, 90.1%,19860601-20240401, 85.5%,20050501-20240401, 87.4%
USC00157622,37.8370,-82.8622,231.6,KY,STAFFORDSVILLE 2 NW,,15,-5,19820521-20240416, 63.7%,20030504-20240416, 80.6%,20131024-20240416, 94.1%
USC00157677,36.6736,-84.4791,371.9,KY,STEARNS 2S,,15,-5,19480801-20150504, 76.3%,19811217-20150504, 83.0%,19980825-20150504, 78.4%
USC00157948,38.0144,-85.3713,152.4,KY,TAYLORSVILLE 2SW,,15,-5,20030905-20240415, 56.5%,20131225-20240415, 96.3%,20190219-20240415, 92.8%
USC00158070,36.8136,-85.7080,257.6,KY,TOMPKINSVILLE 9NW,,15,-6,19501201-20151209, 33.0%,19830605-20151209, 53.3%,19990906-20151209, 57.9%
USC00158719,37.8012,-85.1127,263.0,KY,WILLISBURG,,15,-5,19681024-20170814, 69.5%,19930320-20170814, 55.4%,20050601-20170814, 48.5%
USC00158824,37.1852,-86.6335,134.1,KY,WOODBURY,,15,-6,19480801-20240415, 89.5%,19860608-20240415, 83.9%,20050512-20240415, 88.4%
USC00161287,30.9594,-92.1786,24.4,LA,BUNKIE,,15,-6,19770101-20100415, 71.2%,19930823-20100415, 56.8%,20011218-20100415, 30.5%
USC00161411,32.5372,-92.3598,36.6,LA,CALHOUN 2 N,,15,-6,19680410-20240306, 75.1%,19960323-20240306, 56.9%,20100315-20240306, 42.3%
USC00161866,31.7236,-91.5408,22.3,LA,CLAYTON,,15,-6,20040107-20120930, 50.5%,20080519-20120930, 52.8%,20100725-20120930, 40.5%
USC00161899,30.8177,-90.9733,61.0,LA,CLINTON 5 SE,,15,-6,19740701-20170321, 88.4%,19951110-20170321, 83.0%,20060716-20170321, 83.1%
USC00161979,32.1673,-92.1077,25.0,LA,COLUMBIA LOCK,,15,-6,20170218-20240306, 56.6%,20200827-20240306, 62.4%,20220601-20240306, 37.2%
USC00162534,30.0719,-91.0278,9.1,LA,DONALDSONVILLE 4 SW,,15,-6,19880601-20240201, 81.1%,20060402-20240201, 69.7%,20150303-20240201, 69.9%
USC00164030,30.5030,-90.3772,10.7,LA,HAMMOND 5 E,,15,-6,19840101-20190207, 83.4%,20010720-20190207, 72.8%,20100429-20190207, 71.2%
USC00164696,31.6782,-92.1288,43.6,LA,JENA,,15,-6,19860204-20240306, 79.6%,20050219-20240306, 78.6%,20140828-20240306, 93.0%
USC00164700,30.2002,-92.6641,7.6,LA,JENNINGS,,15,-6,19700301-20100501, 76.6%,19900331-20100501, 71.7%,20000415-20100501, 47.1%
USC00164739,31.4825,-91.8627,21.3,LA,JONESVILLE LOCKS,,15,-6,19720406-20231201, 82.5%,19980202-20231201, 78.0%,20110101-20231201, 83.1%
USC00165021,30.2191,-92.0650,7.6,LA,LAFAYETTE,,15,-6,19520310-20100603, 86.0%,19810421-20100603, 73.9%,19951111-20100603, 54.0%
USC00165287,31.0516,-93.2788,79.2,LA,LEESVILLE 6 SSW,,15,-6,19940803-20100525, 49.5%,20020629-20100525, 13.7%,20060611-20100525,  4.1%
USC00165620,30.3644,-91.1672,6.4,LA,LSU BEN-HUR FARM,,15,-6,19820501-20130123, 76.4%,19970911-20130123, 67.8%,20050518-20130123, 39.7%
USC00165874,32.0712,-93.7588,98.1,LA,MANSFIELD 4 NW,,15,-6,19961001-20210323, 59.5%,20081226-20210323, 41.1%,20150208-20210323, 43.9%
USC00166244,32.6052,-93.2947,56.4,LA,MINDEN,,15,-6,19640305-20211026, 86.1%,19921230-20211026, 80.5%,20070529-20211026, 74.2%
USC00166314,32.4935,-92.0319,21.3,LA,MONROE DELTA CC,,15,-6,19770705-20091027, 88.7%,19930831-20091027, 84.4%,20010928-20091027, 74.7%
USC00166394,29.6833,-91.1761,1.5,LA,MORGAN CITY,,15,-6,19471001-20100618, 83.1%,19790208-20100618, 69.8%,19941013-20100618, 50.0%
USC00166582,31.7722,-93.0955,39.6,LA,NATCHITOCHES,,15,-6,19680701-20080530, 89.1%,19880615-20080530, 83.9%,19980607-20080530, 83.3%
USC00166584,31.8142,-93.0856,43.0,LA,NATCHITOCHES #2,,15,-6,20081126-20240301, 86.8%,20160714-20240301, 99.5%,20200507-20240301, 99.1%
USW00012930,29.9166,-90.1302,6.1,LA,NEW ORLEANS AUDUBON,,15,-6,19630101-20240122, 85.2%,19930712-20240122, 76.6%,20081016-20240122, 59.5%
USC00167691,32.4936,-91.7486,27.1,LA,RAYVILLE,,15,-6,20060315-20151201, 73.1%,20110122-20151201, 87.5%,20130627-20151201, 96.6%
USC00167738,32.4219,-93.6380,47.2,LA,RED RIVER RESEARCH STATION,,15,-6,19751101-20240301, 86.2%,19991231-20240301, 77.3%,20120130-20240301, 86.0%
USC00168163,31.9497,-91.2336,23.8,LA,ST JOSEPH 3 N,,15,-6,20030401-20130810, 75.0%,20080605-20130810, 66.3%,20110107-20130810, 61.5%
USW00013957,32.4473,-93.8244,69.5,LA,SHREVEPORT AP,72248,15,-6,19471001-20131231, 88.3%,19801115-20131231, 97.7%,19970608-20131231, 95.8%
USC00168444,32.3795,-93.8019,57.3,LA,SHREVEPORT SOUTHERN HILLS,,15,-6,20051213-20240301, 86.7%,20150121-20240301, 99.2%,20190811-20240301, 99.3%
USC00168539,30.2500,-89.7667,3.0,LA,SLIDELL WSFO,,15,-6,19740408-20231225, 74.4%,19990215-20231225, 54.3%,20110721-20231225, 36.2%
USC00168785,32.7025,-92.0813,25.9,LA,STERLINGTON,,15,-6,20051220-20091211, 92.7%,20071216-20091211, 86.6%,20081213-20091211, 86.2%
USC00169013,29.7547,-90.7748,4.6,LA,THIBODAUX 4 SE,,15,-6,20111230-20240201, 41.1%,20180115-20240201, 38.8%,20210123-20240201, 44.5%
USC00169357,31.5652,-91.4332,18.3,LA,VIDALIA NO 2,,15,-6,19521101-20121012, 85.0%,19821022-20121012, 74.7%,19971017-20121012, 67.2%
USC00169803,31.9622,-92.6561,48.8,LA,WINNFIELD 3 N,,15,-6,19561114-20240110, 84.5%,19900613-20240110, 73.2%,20070328-20240110, 58.4%
USC00169806,32.0997,-91.7022,24.4,LA,WINNSBORO 5 SSE,,15,-6,19560822-20220503, 87.1%,19890627-20220503, 78.8%,20051129-20220503, 70.0%
USC00170100,44.3738,-68.2591,143.3,ME,ACADIA NATIONAL PARK,,15,-5,19820907-20120704, 86.8%,19970805-20120704, 82.3%,20050118-20120704, 83.9%
USC00170200,47.0886,-69.0250,181.7,ME,ALLAGASH,,15,-5,19750821-20120507, 84.9%,19931228-20120507, 85.4%,20030303-20120507, 81.6%
USC00170273,44.3007,-69.7792,8.8,ME,AUGUSTA,,15,-5,19521001-20181025, 80.1%,19851013-20181025, 80.0%,20020419-20181025, 66.9%
USC00171472,46.6109,-69.5231,304.8,ME,CLAYTON LAKE,,15,-5,19480501-20110601, 84.7%,19791115-20110601, 73.9%,19950823-20110601, 66.9%
USC00172048,43.9996,-70.0963,42.7,ME,DURHAM,,15,-5,20221030-20240419, 97.4%,20230725-20240419, 99.6%,20231206-20240419, 99.3%
USC00172878,47.2386,-68.6120,185.9,ME,FORT KENT,,15,-5,19531016-20240403, 86.2%,19890108-20240403, 93.8%,20060821-20240403, 94.3%
USC00173250,46.1412,-68.7906,201.2,ME,GRAND LAKE MATAGAMON,,15,-5,19750911-20240402, 88.3%,19991222-20240402, 86.9%,20120211-20240402, 98.0%
USC00173261,45.1776,-67.7742,88.4,ME,GRAND LAKE STREAM,,15,-5,19480501-20240401, 87.6%,19860416-20240401, 89.7%,20050408-20240401, 87.7%
USC00173295,43.8925,-70.2544,115.2,ME,GRAY,74389,15,-5,20201121-20240417,100.0%,20220804-20240417, 99.8%,20230611-20240417, 99.7%
USC00173862,43.6476,-70.6750,92.7,ME,HOLLIS,,15,-5,20201007-20240402, 99.5%,20220705-20240402, 99.5%,20230519-20240402, 99.4%
USC00173944,46.2061,-67.8418,118.9,ME,HOULTON 5N,,15,-5,19850701-20150501, 92.6%,20000531-20150501, 91.6%,20071115-20150501, 99.3%
USC00174086,45.6260,-70.2460,370.0,ME,JACKMAN,,15,-5,19750923-20190619, 84.4%,19970805-20190619, 85.2%,20080712-20190619, 94.1%
USC00175285,44.5389,-67.8801,8.5,ME,MILBRIDGE,,15,-5,20100524-20240401, 97.6%,20170427-20240401, 96.5%,20201013-20240401, 96.8%
USC00175347,45.2563,-69.0101,128.0,ME,MILO,,15,-5,19750910-20120504, 91.7%,19940106-20120504, 93.0%,20030306-20120504, 91.5%
USC00176435,44.8785,-68.6688,17.7,ME,ORONO 2,,15,-5,19540801-20240401, 89.3%,19890601-20240401, 93.6%,20061031-20240401, 95.7%
USC00177255,44.1030,-69.1157,10.7,ME,ROCKLAND,,15,-5,19481201-20180526, 87.8%,19830829-20180526, 84.9%,20010110-20180526, 77.3%
USC00177336,44.4940,-70.6563,192.0,ME,RUMFORD 6SW,,15,-5,20090801-20190621, 92.3%,20140711-20190621, 90.9%,20161230-20190621, 82.0%
USC00177827,44.7638,-69.7194,50.3,ME,SKOWHEGAN,,15,-5,19480501-20181025, 88.0%,19830729-20181025, 80.8%,20010312-20181025, 72.1%
USC00178942,44.8834,-70.8619,446.5,ME,UPPER DAM,,15,-5,20140531-20180830, 96.5%,20160715-20180830, 93.4%,20170807-20180830, 89.2%
USW00013701,39.4716,-76.1697,17.4,MD,ABERDEEN PHILLIPS FLD,,15,-5,19480501-20240401, 43.9%,19860416-20240401, 62.5%,20050408-20240401, 59.9%
USC00180700,39.0302,-76.9315,44.2,MD,BELTSVILLE,,15,-5,19480501-20240301, 91.6%,19860401-20240301, 88.5%,20050316-20240301, 93.4%
USC00185934,39.7194,-76.8027,262.1,MD,MILLERS 4 NE,,15,-5,19880310-20240302, 90.5%,20060306-20240302, 93.9%,20150304-20240302, 96.1%
USC00188065,39.5099,-79.1401,455.7,MD,SAVAGE RIVER DAM,,15,-5,19490601-20220906, 72.1%,19860118-20220906, 56.6%,20040513-20220906, 40.1%
USC00200032,41.9164,-84.0164,231.6,MI,ADRIAN 2 NNE,,15,-5,20220518-20221001, 97.7%,20220725-20221001, 94.0%,20220828-20221001, 97.1%
USC00200089,46.6448,-88.4812,399.3,MI,ALBERTA FORD FOR CENTER,,15,-5,19911101-20240406, 67.5%,20080118-20240406, 86.5%,20160226-20240406, 99.7%
USC00200146,43.3869,-84.6482,221.9,MI,ALMA,,15,-5,20201012-20240401, 87.4%,20220707-20240401, 89.0%,20230520-20240401, 78.6%
USC00200230,42.2981,-83.6639,247.8,MI,ANN ARBOR U OF MICH,,15,-5,19480701-20240401, 94.9%,19860517-20240401, 97.3%,20050424-20240401, 99.8%
USC00200662,44.9758,-85.1980,190.5,MI,BELLAIRE,,15,-5,19480701-20240401, 92.6%,19860517-20240401, 95.1%,20050424-20240401, 99.8%
USC00200766,46.8864,-87.8639,185.3,MI,BIG BAY 8 NW,,15,-5,19610427-20240415, 82.5%,19921020-20240415, 89.0%,20080718-20240415, 98.7%
USC00201088,46.5345,-89.1839,345.9,MI,BRUCE CROSSING,,15,-5,19780814-20240403, 80.8%,20010608-20240403, 83.6%,20121104-20240403, 99.4%
USC00201361,43.5861,-83.1805,212.8,MI,CASS CITY 1 SSW,,15,-5,19921103-20240402, 89.9%,20080718-20240402, 98.9%,20160525-20240402, 99.8%
USC00201486,46.3414,-86.9242,265.2,MI,CHATHAM EXPERIMENT FARM 2,,15,-5,19880802-20240415, 82.1%,20060609-20240415, 96.0%,20150513-20240415, 98.9%
USC00201680,41.9397,-85.0183,289.6,MI,COLDWTR WASTEWTR PLT,,15,-5,19400701-20240402, 74.5%,19820517-20240402, 75.6%,20030425-20240402, 84.0%
USC00201780,47.4679,-87.8671,190.5,MI,COPPER HARBOR FORT WILKINS,,15,-5,19480701-20240416, 76.9%,19860524-20240416, 66.3%,20050505-20240416, 83.3%
USC00202094,45.9983,-83.9013,181.4,MI,DETOUR VILLAGE,,15,-5,19520819-20240402, 90.3%,19880610-20240402, 88.2%,20060507-20240402, 98.0%
USC00202381,45.1518,-85.1324,178.9,MI,EAST JORDAN,,15,-5,20191024-20240401, 93.5%,20220111-20240401, 93.0%,20230220-20240401, 96.7%
USC00202598,46.1280,-85.5696,208.8,MI,ENGADINE MDOT,,15,-5,20140812-20240402, 98.4%,20190607-20240402, 99.9%,20211103-20240402, 99.9%
USW00014824,45.7438,-87.0406,180.1,MI,ESCANABA,,15,-5,19480801-20150622, 73.7%,19820110-20150622, 55.7%,19981001-20150622, 53.7%
USC00202627,45.7181,-87.0939,179.8,MI,ESCANABA #2,,15,-5,20140903-20240405, 97.7%,20190620-20240405, 99.9%,20211111-20240405, 99.9%
USW00014828,43.9758,-84.4908,236.2,MI,GLADWIN,,15,-5,19480701-20240402, 58.7%,19860517-20240402, 92.6%,20050424-20240402, 97.3%
USC00203188,44.5358,-83.7022,272.5,MI,GLENNIE 2SE,,15,-5,20000101-20240401, 72.2%,20120215-20240401, 99.5%,20180309-20240401, 99.9%
USC00203295,43.0618,-86.2044,182.9,MI,GRAND HAVEN WASTEWATER PLANT,,15,-5,19480701-20240411, 89.2%,19860522-20240411, 93.3%,20050501-20240411, 92.2%
USC00203391,44.6454,-84.6992,350.8,MI,GRAYLING,,15,-5,19890801-20240401, 82.4%,20061201-20240401, 96.5%,20150801-20240401, 99.7%
USC00203516,46.2863,-87.4511,337.1,MI,GWINN 1W,,15,-5,19490701-20240415, 87.3%,19861122-20240415, 79.4%,20050803-20240415, 92.4%
USC00203585,43.8322,-82.6427,181.4,MI,HARBOR BEACH 1 SSE,,15,-5,20010601-20240401, 93.0%,20121031-20240401, 98.8%,20180717-20240401, 99.8%
USC00203661,42.6421,-85.2882,250.2,MI,HASTINGS,,15,-5,20000101-20240401, 50.1%,20120215-20240401, 96.8%,20180309-20240401, 97.7%
USC00203947,42.6333,-83.9167,289.9,MI,HOWELL SEWAGE PLANT,,15,-5,19610410-20240411, 91.5%,19921010-20240411, 91.4%,20080711-20240411, 97.2%
USC00204090,45.7858,-88.0841,326.4,MI,IRON MTN-KINGSFORD WWTP,,15,-6,19480701-20240402, 94.5%,19860517-20240402, 95.8%,20050424-20240402, 98.0%
USC00204104,46.4656,-90.1892,435.9,MI,IRONWOOD,,15,-6,20071203-20240405, 93.7%,20160203-20240405, 98.4%,20200305-20240405, 99.7%
USC00204155,42.2884,-84.4236,288.0,MI,JACKSON 3N,,15,-5,19480701-20240201, 85.9%,19860417-20240201, 84.2%,20050310-20240201, 75.7%
USC00204320,43.2036,-85.7776,247.8,MI,KENT CITY 2 SW,,15,-5,19880414-20240301, 77.5%,20060323-20240301, 71.0%,20150312-20240301, 91.5%
USC00204328,46.4863,-88.8916,355.7,MI,KENTON,,15,-5,19500701-20240408, 75.2%,19870520-20240408, 61.4%,20051028-20240408, 82.9%
USC00204502,44.3088,-85.2050,374.9,MI,LAKE CITY EXP FARM,,15,-5,20060901-20240402, 99.6%,20150617-20240402, 99.9%,20191109-20240402, 99.9%
USC00205073,45.9512,-86.2513,182.9,MI,MANISTIQUE WWTP,,15,-5,19921001-20240402, 88.3%,20080702-20240402, 98.5%,20160517-20240402, 99.8%
USW00094850,46.5313,-87.5491,431.3,MI,MARQUETTE WFO,72743,15,-5,19790201-20240415, 84.6%,20010908-20240415, 79.5%,20121226-20240415, 93.3%
USC00205403,46.5353,-88.1095,490.1,MI,MICHIGAMME,,15,-5,20220303-20240401, 99.5%,20230318-20240401, 99.2%,20230924-20240401, 98.4%
USC00205434,43.6088,-84.2011,195.1,MI,MIDLAND,,15,-5,20230403-20240410,100.0%,20231006-20240410, 99.5%,20240107-20240410, 98.9%
USC00205567,43.4610,-86.4177,198.1,MI,MONTAGUE 4 NW,,15,-5,19780614-20240404, 88.1%,20010509-20240404, 91.5%,20121021-20240404, 97.5%
USC00205816,46.3287,-85.5033,270.1,MI,NEWBERRY CORRECTIONAL FACILITY,,15,-5,19510601-20240401, 83.2%,19871031-20240401, 74.6%,20060115-20240401, 69.7%
USC00206215,46.8559,-89.3124,204.5,MI,ONTONAGON,,15,-5,19480901-20240403, 83.1%,19860618-20240403, 80.2%,20050511-20240403, 80.5%
USC00206300,43.0161,-84.1800,222.5,MI,OWOSSO WWTP,,15,-5,19550831-20240401, 85.7%,19891215-20240401, 87.4%,20070207-20240401, 98.7%
USC00207280,43.0128,-84.5547,226.5,MI,SAINT JOHNS,,15,-5,20000101-20240403, 43.3%,20120216-20240403, 86.5%,20180311-20240403, 96.2%
USC00207407,43.9331,-86.2453,203.0,MI,SCOTTVILLE 2SE,,15,-5,20000101-20240401, 53.5%,20120215-20240401, 97.5%,20180309-20240401, 99.9%
USC00207812,46.0555,-88.6275,442.0,MI,STAMBAUGH 2SSE,,15,-6,19921001-20240403, 89.7%,20080702-20240403, 97.9%,20160518-20240403, 99.8%
USC00207828,43.2908,-85.0922,283.5,MI,STANTON,,15,-5,19560618-20231010, 75.2%,19900212-20231010, 74.7%,20061211-20231010, 75.0%
USC00208246,44.7686,-85.5763,184.1,MI,TRAVERSE CITY,,15,-5,19580411-20240401, 93.7%,19910406-20240401, 96.4%,20071003-20240401, 98.3%
USC00208293,46.1796,-85.0311,250.9,MI,TROUT LAKE 1SW,,15,-5,19480701-20140601, 82.6%,19810616-20140601, 76.8%,19971208-20140601, 93.2%
USC00208417,45.1702,-84.4397,275.8,MI,VANDERBILT 11ENE,,15,-5,19480701-20240401, 95.0%,19860517-20240401, 95.1%,20050424-20240401, 99.3%
USC00208443,43.3656,-83.5828,192.0,MI,VASSAR,,15,-5,19770701-20240411, 83.9%,20001120-20240411, 83.1%,20120731-20240411, 99.6%
USC00208680,46.3000,-89.0833,484.9,MI,WATERSMEET FISH HATCHERY,,15,-6,20101004-20240404, 95.8%,20170704-20240404, 98.5%,20201118-20240404, 98.8%
USC00209218,42.2469,-83.6256,240.5,MI,YPSILANTI E MICH U,,15,-5,19480101-20240402, 64.3%,19860215-20240402, 85.2%,20050310-20240402, 92.5%
USC00210075,43.6064,-93.3019,374.9,MN,ALBERT LEA 3SE,,15,-6,19480901-20240401, 21.1%,19860617-20240401, 42.0%,20050509-20240401, 78.7%
USC00210116,45.8966,-95.3657,426.7,MN,ALEXANDRIA WATER TREATMENT PLANT,,15,-6,19711001-20240304, 81.5%,19971217-20240304, 77.9%,20110125-20240304, 95.1%
USC00210157,43.8835,-94.1665,313.9,MN,AMBOY,,15,-6,19480801-20190108, 68.0%,19831020-20190108, 66.2%,20010530-20190108, 85.5%
USC00210746,48.1969,-93.7994,371.9,MN,BIG FALLS,,15,-6,19480801-20240401, 85.9%,19860601-20240401, 83.1%,20050501-20240401, 77.4%
