StnID,dpt_wmo_id,distance_km,elevation_diff_m,Lat,Lon,Elev,State/Province,Name,UTC_Offset,POR_Date_Range,PCT_POR_Good,Num_Year_Overlap,Num_Valid_Years,PCT_Good_Overlap_1h,Num_Year_Overlap_1h,PCT_Good_Overlap_24h,Num_Year_Overlap_24h,KG
USW00012911,722535-12909,35.12440491827774,11.900000000000006,29.5325,-98.2623,221.9,TX,RANDOLPH AFB,-6,19401101-20240403, 92.3%,85.0,85.0,98.8,85.0,99.1,85.0,Cfa
USC00419527,723630-23047,49.6799545531183,62.700000000000045,34.7933,-101.5483,1036.3,TX,WAYSIDE,-6,19410601-20240422, 79.8%,81.0,80.0,96.1,79.0,95.8,78.0,BSk
USC00415410,722670-23042,3.307166147328145,3.899999999999977,33.6897,-101.8219,989.1,TX,LUBBOCK 9 N,-6,19420901-20240402, 94.7%,80.0,79.0,95.9,80.0,96.5,79.0,BSk
USC00413133,722580-13960,36.545029821417714,3.6999999999999886,32.5338,-96.6608,143.3,TX,FERRIS,-6,19460701-20240304, 89.2%,78.0,78.0,99.9,78.0,100.0,78.0,Cfa
USC00085612,747950-12867,13.98361791873897,8.7,28.1136,-80.654,10.7,FL,MELBOURNE WFO,-5,19420101-20240401, 95.0%,78.0,78.0,89.7,78.0,90.2,78.0,Cfa
USC00299156,723676-23048,8.19311302122433,15.400000000000093,35.2005,-103.6866,1245.4,NM,TUCUMCARI 4 NE,-7,19471101-20240401, 93.7%,78.0,78.0,99.4,78.0,98.9,77.0,BSk
USC00408562,723270-13897,42.671323541870265,48.1,36.471,-86.8415,227.1,TN,SPRINGFIELD EXPERIMENT STATION,-6,19480901-20240404, 87.3%,77.0,77.0,100.0,77.0,100.0,77.0,Cfa
USW00013802,724338-13802,0.0,4.0,38.55,-89.85,135.0,IL,BELLEVILLE SCOTT AAF,-6,19480701-20240401, 92.4%,77.0,77.0,99.9,77.0,99.9,77.0,Dfa
USC00121739,725330-14827,31.14399659653203,11.199999999999989,41.1452,-85.4898,254.2,IN,COLUMBIA CITY,-5,19480701-20240401, 88.2%,77.0,77.0,99.9,77.0,99.9,77.0,Dfa
USC00337935,745700-13840,26.1452486934099,39.89999999999998,39.9735,-83.8072,289.9,OH,SPRINGFIELD WATER TREATMENT PLANT,-5,19480801-20240401, 85.7%,77.0,77.0,99.8,77.0,99.9,77.0,Dfa
USC00112011,725340-14819,38.28918933942763,31.40000000000001,41.4492,-87.6221,216.4,IL,CRETE PUBLIC WORKS,-6,19480701-20240412, 88.3%,77.0,77.0,99.8,77.0,99.8,77.0,Dfa
USC00111577,725300-94846,27.806241988725823,15.0,41.7373,-87.7773,189.0,IL,CHICAGO MIDWAY AP 3SW,-6,19480701-20240401, 95.9%,77.0,77.0,99.7,77.0,99.7,77.0,Dfa
USC00357127,726940-24232,45.35825423503358,94.0,45.3033,-122.9133,157.0,OR,REX 1 S,-8,19480801-20240401, 96.4%,77.0,77.0,100.0,77.0,100.0,77.0,Csb
USC00110082,725440-14923,42.66859565055461,29.80000000000001,41.0578,-90.5655,204.8,IL,ALEXIS 1 SW,-6,19480701-20240408, 93.4%,77.0,77.0,100.0,77.0,100.0,77.0,Dfa
USC00405108,723270-13897,35.08986379627611,19.0,36.2291,-86.318,160.0,TN,LEBANON,-6,19480901-20240401, 85.9%,77.0,77.0,100.0,77.0,100.0,77.0,Cfa
USC00325479,727640-24011,12.689014038618676,30.399999999999977,46.8127,-100.9097,533.4,ND,MANDAN EXP STATION,-6,19481001-20240401, 94.1%,77.0,77.0,99.5,77.0,98.8,76.0,BSk
USC00385493,747900-13849,37.73439324966441,47.1,33.6988,-80.1992,25.9,SC,MANNING,-5,19480601-20240304, 83.3%,77.0,77.0,99.5,77.0,99.6,77.0,Cfa
USC00080845,722030-12844,34.798291457555806,6.1,26.3676,-80.1107,9.1,FL,BOCA RATON,-5,19420101-20220316, 85.1%,77.0,77.0,95.4,77.0,95.3,77.0,Am
USC00391452,726540-14936,44.08358476969799,64.19999999999999,44.6889,-97.8896,454.2,SD,CARPENTER 4NNE,-6,19480801-20240403, 90.9%,77.0,77.0,99.9,77.0,99.8,75.0,Dfa
USC00357572,726980-24229,19.58652398464892,6.199999999999999,45.6555,-122.8338,12.2,OR,SAUVIES ISLAND,-8,19480701-20240408, 95.7%,77.0,77.0,99.9,77.0,99.9,77.0,Csb
USC00114355,725440-14923,40.831356055260905,7.400000000000006,41.4255,-91.0094,167.6,IL,ILLINOIS CITY DAM 16,-6,19480701-20240401, 94.5%,77.0,77.0,100.0,77.0,100.0,77.0,Dfa
USC00124782,725350-14848,19.54441488913774,21.30000000000001,41.5269,-86.2692,256.3,IN,LAKEVILLE,-5,19480701-20240401, 93.4%,77.0,77.0,99.9,77.0,100.0,77.0,Dfa
USC00244143,726776-24036,23.56517367500061,13.400000000000093,47.2531,-109.361,1243.6,MT,HILGER,-7,19480701-20240405, 91.3%,77.0,77.0,99.0,77.0,98.3,77.0,Dfb
USC00200662,726387-14850,39.51342161405195,5.5,44.9758,-85.198,190.5,MI,BELLAIRE,-5,19480701-20240401, 92.6%,77.0,77.0,98.9,77.0,98.8,77.0,Dfb
USC00203295,726360-14840,12.209412969275563,7.099999999999994,43.0618,-86.2044,182.9,MI,GRAND HAVEN WASTEWATER PLANT,-5,19480701-20240411, 89.2%,77.0,77.0,99.4,77.0,99.5,77.0,Dfa
USC00210746,727470-14918,49.55812909888429,19.899999999999977,48.1969,-93.7994,371.9,MN,BIG FALLS,-6,19480801-20240401, 85.9%,77.0,77.0,99.3,77.0,99.1,77.0,Dfb
USC00212166,726440-14925,33.689763111630974,10.199999999999989,44.0317,-92.8691,386.8,MN,DODGE CENTER,-6,19480826-20240407, 84.2%,77.0,77.0,100.0,77.0,99.9,77.0,Dfa
USC00215987,726580-14922,45.45850589831524,17.30000000000001,44.4753,-93.1486,271.3,MN,NORTHFIELD 2NNE,-6,19480801-20240401, 91.8%,77.0,77.0,100.0,77.0,100.0,77.0,Dfa
USC00217941,726440-14925,24.277047439625075,8.399999999999977,43.6933,-92.3926,388.6,MN,SPRING VALLEY,-6,19480801-20240405, 91.2%,77.0,77.0,100.0,77.0,100.0,77.0,Dfa
USC00137572,725485-14940,25.577216440457708,13.0,42.9216,-93.2827,349.0,IA,SHEFFIELD 3 NW,-6,19480801-20240403, 92.5%,77.0,77.0,99.8,77.0,100.0,77.0,Dfa
USC00124908,724380-93819,40.45218186201992,41.89999999999998,40.0516,-86.475,282.9,IN,LEBANON WATER WORKS,-5,19480701-20240405, 94.3%,77.0,77.0,100.0,77.0,100.0,77.0,Dfa
USC00137326,725485-14940,41.18297647769239,14.800000000000011,43.3817,-92.9232,347.2,IA,ST ANSGAR,-6,19480809-20240405, 93.0%,77.0,77.0,99.9,77.0,100.0,77.0,Dfa
USC00272174,726050-14745,45.06826714222875,79.8,43.1419,-70.95,23.2,NH,DURHAM,-5,19480501-20240402, 83.8%,77.0,77.0,99.8,77.0,99.8,75.0,Dfb
USC00135584,725540-14949,48.96443299245854,11.199999999999989,41.55,-95.9333,307.8,IA,MISSOURI VALLEY 2 WSW,-6,19480801-20240305, 87.3%,77.0,77.0,98.6,77.0,99.3,76.0,Dfa
USC00134381,999999-14931,47.73770863133941,53.400000000000006,40.3968,-91.3749,160.6,IA,KEOKUK LOCK DAM 19,-6,19480801-20240401, 92.6%,77.0,77.0,100.0,77.0,100.0,77.0,Dfa
USC00132977,725485-14940,29.264823191399334,28.100000000000023,43.2844,-93.6305,390.1,IA,FOREST CITY 2 NNE,-6,19480801-20240402, 78.1%,77.0,77.0,99.9,77.0,99.9,77.0,Dfa
USC00299686,747320-99999,10.351093521482218,27.0,32.7822,-106.1759,1221.0,NM,WHITE SANDS NAT'L MON.,-7,19471101-20240413, 94.9%,77.0,77.0,97.5,77.0,97.0,77.0,BWk
USC00124181,725330-14827,28.12673925262608,20.19999999999999,40.856,-85.4988,222.8,IN,HUNTINGTON,-5,19480701-20240402, 88.8%,77.0,77.0,99.8,77.0,99.7,77.0,Dfa
USC00180700,724050-13743,22.80079050868965,40.2,39.0302,-76.9315,44.2,MD,BELTSVILLE,-5,19480501-20240301, 91.6%,77.0,77.0,98.4,77.0,99.1,77.0,Cfa
USC00476718,726410-14837,44.13556343037449,21.69999999999999,43.5306,-89.437,239.3,WI,PORTAGE WWTP,-6,19480801-20240402, 92.9%,77.0,77.0,100.0,77.0,100.0,77.0,Dfa
USW00024137,727796-24137,0.6291008066005026,2.7999999999999545,48.6036,-112.3766,1171.8,MT,CUT BANK AIRPORT,-7,19480701-20231206, 91.6%,76.0,76.0,99.3,76.0,99.3,76.0,BSk
USC00471578,726435-14991,9.420560692097643,19.099999999999994,44.9277,-91.4081,249.9,WI,CHIPPEWA FALLS,-6,19480801-20240402, 85.9%,76.0,76.0,98.0,76.0,98.2,76.0,Dfa
USC00315830,723090-13754,22.71305041376691,5.0,34.7336,-76.7357,3.0,NC,MOREHEAD CITY 2 WNW,-5,19480601-20240410, 86.3%,77.0,76.0,100.0,77.0,100.0,77.0,Cfa
USC00315814,723140-13881,42.77997081678522,43.19999999999999,35.594,-80.8393,265.2,NC,MOORESVILLE 2 WNW,-5,19490301-20240401, 91.0%,76.0,76.0,100.0,76.0,100.0,76.0,Cfa
USC00471568,726450-14898,49.74436746183704,48.0,44.0328,-88.1468,256.0,WI,CHILTON,-6,19480801-20240322, 93.8%,76.0,76.0,98.2,76.0,98.9,76.0,Dfb
USC00330107,725250-14852,49.76106400841888,33.39999999999998,40.9551,-81.1167,321.6,OH,ALLIANCE 3 NNW,-5,19480801-20240401, 83.4%,76.0,76.0,99.2,76.0,99.5,76.0,Dfa
USC00086880,722110-12842,43.37669419904434,17.3,27.609,-82.3476,18.3,FL,PARRISH,-5,19440818-20210709, 89.9%,76.0,76.0,97.0,76.0,96.6,76.0,Cfa
USC00406371,723270-13897,34.7618044259622,15.900000000000006,35.9204,-86.3727,163.1,TN,MURFREESBORO 5 N,-6,19480901-20240403, 88.6%,76.0,76.0,100.0,76.0,100.0,76.0,Cfa
USC00281351,724088-13707,49.323414667396335,1.9000000000000004,38.9534,-74.9361,6.1,NJ,CAPE MAY 2 NW,-5,19480501-20240211, 84.8%,76.0,76.0,96.9,76.0,96.7,76.0,Cfa
USC00330639,725250-14852,36.54441469471199,38.0,41.0431,-81.0091,317.0,OH,BERLIN LAKE,-5,19480801-20240405, 88.5%,76.0,76.0,99.3,76.0,99.1,76.0,Dfa
USC00473038,726430-14920,33.343603587671915,3.1999999999999886,43.5705,-91.2295,194.8,WI,GENOA DAM 8,-6,19480801-20240419, 89.5%,76.0,76.0,98.3,76.0,98.4,76.0,Dfa
USC00475335,726435-14991,36.01037220669579,29.69999999999999,44.8741,-91.9365,239.3,WI,MENOMONIE,-6,19480801-20240401, 88.6%,76.0,76.0,99.5,76.0,99.2,75.0,Dfa
USC00336196,725240-14820,33.53988784043145,12.699999999999989,41.2802,-82.2187,248.7,OH,OBERLIN,-5,19480801-20240401, 91.2%,76.0,76.0,99.5,76.0,99.6,76.0,Dfa
USC00413691,722595-13911,42.52583529564444,6.699999999999989,32.9506,-97.0553,178.3,TX,GRAPEVINE DAM,-6,19490623-20240131, 90.2%,76.0,76.0,99.5,76.0,99.9,76.0,Cfa
USC00419532,722597-93985,27.313160459797945,6.199999999999989,32.7479,-97.7704,293.2,TX,WEATHERFORD,-6,19471001-20240205, 93.7%,76.0,76.0,94.4,77.0,95.2,75.0,Cfa
USC00338552,745700-13840,37.62793336058988,60.60000000000002,40.0991,-83.7823,310.6,OH,URBANA WRF,-5,19491101-20240401, 77.3%,76.0,76.0,99.9,76.0,100.0,76.0,Dfa
USC00387560,747900-13849,44.32257898659354,12.299999999999995,33.6575,-80.7724,85.3,SC,ST MATTHEWS,-5,19480601-20231208, 90.9%,76.0,76.0,99.6,76.0,99.7,76.0,Cfa
USC00339312,725210-14895,42.82887261240308,57.10000000000002,40.7813,-81.9199,310.9,OH,WOOSTER EXP STATION,-5,19480801-20240403, 93.6%,76.0,76.0,99.6,76.0,99.6,76.0,Dfa
USC00355969,727910-94224,48.38385526834306,3.7,45.7149,-123.8869,6.7,OR,NEHALEM,-8,19480701-20240401, 92.5%,76.0,76.0,98.7,76.0,98.9,76.0,Csb
USC00230789,724400-13995,41.85395295657367,83.19999999999999,37.6164,-93.3914,300.8,MO,BOLIVAR 1 NE,-6,19480801-20240403, 80.3%,76.0,76.0,100.0,76.0,100.0,73.0,Dfa
USC00220237,723340-13893,32.43787367423197,17.0,34.7802,-90.1153,93.0,MS,ARKABUTLA DAM,-6,19471004-20240410, 87.2%,77.0,76.0,100.0,77.0,99.8,77.0,Cfa
USC00217184,726430-14920,40.7527752777329,36.69999999999999,43.8052,-91.7501,234.7,MN,RUSHFORD,-6,19480801-20240401, 88.2%,76.0,76.0,98.5,76.0,98.9,76.0,Dfa
USC00478259,726435-14991,40.9549920940407,28.5,44.4965,-91.3965,297.5,WI,STRUM 4 S,-6,19480801-20240406, 88.2%,76.0,76.0,98.5,76.0,99.3,74.0,Dfa
USC00410691,722595-13911,12.522443488114932,55.80000000000001,32.6475,-97.4439,240.8,TX,BENBROOK DAM,-6,19490622-20240131, 90.8%,76.0,76.0,99.7,76.0,99.9,75.0,Cfa
USC00336949,725210-14895,28.377200620726512,30.600000000000023,41.1366,-81.2844,337.4,OH,RAVENNA 2 S,-5,19480801-20240402, 85.2%,76.0,75.0,99.7,75.0,99.3,75.0,Dfa
USC00388879,723100-13883,41.2478410951604,47.8,33.6398,-81.3722,115.8,SC,WAGENER 1SW,-5,19480601-20240306, 87.1%,75.0,75.0,100.0,75.0,100.0,75.0,Cfa
USC00119816,725320-14842,30.540651338020822,4.900000000000006,40.7779,-90.0073,203.9,IL,YATES CITY,-6,19501201-20240401, 88.5%,75.0,75.0,100.0,75.0,99.9,75.0,Dfa
USC00094941,723240-13882,22.264701442084547,39.5,34.853,-85.3142,243.5,GA,CHICKAMAUGA 2 SW,-5,19480601-20240410, 80.4%,75.0,75.0,100.0,75.0,100.0,74.0,Cfa
USC00364325,725250-14852,32.42905420362304,42.60000000000002,41.4992,-80.4681,312.4,PA,JAMESTOWN 2 NW,-5,19480501-20240405, 83.4%,75.0,75.0,99.3,75.0,99.3,75.0,Dfb
USC00092485,722270-13864,24.2959242381348,11.699999999999989,33.9982,-84.751,313.3,GA,DALLAS 7 NE,-5,19480601-20240302, 93.7%,75.0,75.0,97.0,75.0,97.3,75.0,Cfa
USC00131245,725540-14949,46.206227853811775,13.199999999999989,41.2738,-95.4025,332.2,IA,CARSON 3NNE,-6,19501001-20240304, 95.6%,75.0,75.0,98.5,75.0,98.6,75.0,Dfa
USC00259050,725560-14941,46.609937101012896,22.19999999999999,42.2949,-97.0569,453.8,NE,WAYNE 4 NW,-6,19480801-20240317, 90.4%,76.0,75.0,99.9,76.0,99.7,76.0,Dfa
USC00214937,726510-14944,45.36633782853632,25.19999999999999,43.6658,-96.2022,457.2,MN,LUVERNE,-6,19501001-20240401, 85.3%,75.0,75.0,100.0,75.0,100.0,75.0,Dfa
USC00221389,722350-03940,39.19194609158511,13.799999999999995,32.6713,-90.0361,76.2,MS,CANTON 4N,-6,19471008-20240301, 85.3%,76.0,75.0,100.0,75.0,100.0,75.0,Cfa
USC00143527,724585-93997,46.40690998520789,44.60000000000002,38.8586,-99.3358,612.6,KS,HAYS 1 S,-6,19480801-20240405, 92.7%,75.0,75.0,98.1,75.0,98.6,75.0,Dfa
USC00253469,725540-14949,24.29387449364476,31.5,41.13,-96.1988,350.5,NE,GRETNA 3ESE,-6,19501101-20240301, 93.2%,75.0,75.0,98.5,75.0,99.0,74.0,Dfa
USC00256720,725560-14941,26.183942857285235,28.399999999999977,42.2015,-97.5377,504.4,NE,PIERCE,-6,19480801-20230328, 93.6%,75.0,75.0,99.9,75.0,99.9,75.0,Dfa
USC00415094,722580-13960,39.37920927523116,8.400000000000006,33.0352,-96.4861,155.4,TX,LAVON DAM,-6,19490701-20240327, 81.6%,75.0,75.0,100.0,75.0,100.0,75.0,Cfa
USC00137340,725460-14933,30.004766763908265,37.69999999999999,41.2875,-93.8078,323.7,IA,ST CHARLES,-6,19480801-20221005, 90.2%,75.0,75.0,100.0,75.0,100.0,75.0,Dfa
USC00048218,725845-23225,44.88419378924709,94.59999999999992,39.5833,-120.3705,1516.4,CA,SIERRAVILLE RS,-8,19480701-20240403, 83.2%,76.0,75.0,97.7,76.0,97.1,75.0,Dsb
USC00336650,745700-13840,36.984044022160894,10.0,40.1311,-84.2344,260.0,OH,PIQUA WWTP,-5,19480801-20240402, 83.2%,74.0,74.0,99.8,74.0,99.5,74.0,Dfa
USC00131257,725470-94908,27.58085651198608,67.9,42.2979,-91.0116,248.1,IA,CASCADE,-6,19480801-20240404, 95.1%,74.0,74.0,92.4,74.0,93.1,74.0,Dfa
USC00251145,725660-24028,46.87690652038391,87.70000000000005,41.6681,-103.1038,1118.3,NE,BRIDGEPORT,-7,19480801-20210712, 91.3%,74.0,74.0,100.0,74.0,100.0,74.0,BSk
USC00339224,745700-13840,46.63434024099423,49.0,39.4391,-83.8527,299.0,OH,WILMINGTON,-5,19480801-20240401, 85.6%,75.0,74.0,99.8,75.0,100.0,74.0,Dfa
USC00135796,999999-14931,43.93718173304181,6.699999999999989,40.9601,-91.5851,220.7,IA,MOUNT PLEASANT 1 SW,-6,19480801-20240401, 85.6%,74.0,74.0,100.0,74.0,100.0,74.0,Dfa
USC00235594,724400-13995,39.60328239925028,0.6999999999999886,37.2091,-93.8356,384.7,MO,MILLER,-6,19510101-20240401, 90.0%,74.0,74.0,100.0,74.0,100.0,74.0,Dfa
USC00132240,725460-14933,48.094164650072656,53.89999999999998,41.5077,-94.2269,339.9,IA,DEXTER,-6,19480801-20230801, 82.9%,74.0,74.0,100.0,74.0,100.0,74.0,Dfa
USC00291963,722686-23008,25.80667581182905,42.79999999999996,34.5988,-103.2161,1351.8,NM,CLOVIS 13 N,-7,19490701-20240403, 95.4%,74.0,74.0,95.9,73.0,96.2,73.0,BSk
USC00458207,727810-24243,47.71468592195935,93.3,46.3236,-120.0103,227.7,WA,SUNNYSIDE,-8,19480701-20230803, 84.1%,74.0,74.0,99.1,74.0,99.3,73.0,BWk
USC00086240,722210-13858,5.969590345535177,3.3999999999999986,30.5316,-86.4928,22.6,FL,NICEVILLE,-6,19500701-20240408, 89.3%,75.0,74.0,99.9,75.0,99.8,74.0,Cfa
USW00023047,723630-23047,0.6639691952480841,0.2999999999999545,35.2203,-101.7173,1099.3,TX,AMARILLO AP,-6,19410201-20190402, 93.0%,74.0,74.0,94.0,74.0,93.5,73.0,BSk
USC00381726,722180-03820,39.89564390671081,81.9,33.6634,-82.1897,121.9,SC,CLARKS HILL 1 W,-5,19520108-20240305, 89.5%,73.0,73.0,99.8,73.0,99.9,73.0,Cfa
USC00419715,722560-13959,31.534893034867604,24.0,31.8611,-97.375,175.0,TX,WHITNEY DAM,-6,19520617-20240312, 94.1%,73.0,73.0,100.0,73.0,100.0,73.0,Cfa
USC00333021,725246-14891,26.68455139140877,42.39999999999998,40.7231,-82.7999,356.6,OH,GALION WATER WORKS,-5,19480801-20240409, 85.9%,73.0,73.0,89.2,74.0,92.0,73.0,Dfa
USC00101018,726810-24131,15.46473152689058,5.600000000000023,43.5253,-116.0542,865.6,ID,BOISE LUCKY PEAK DAM,-7,19510101-20240405, 87.7%,73.0,73.0,99.8,73.0,99.7,73.0,BSk
USC00471913,725470-94908,32.4948369334547,19.399999999999977,42.5998,-90.4241,296.6,WI,CUBA CITY,-6,19480801-20240401, 84.2%,73.0,73.0,93.6,73.0,93.7,73.0,Dfa
USC00412096,722597-93985,48.06740064523512,33.0,32.5224,-97.6477,320.0,TX,CRESSON,-6,19460901-20210205, 93.1%,73.0,73.0,93.4,73.0,94.7,72.0,Cfa
USC00273182,726050-14745,32.5252091183835,34.19999999999999,43.4703,-71.6537,137.2,NH,FRANKLIN FALLS DAM,-5,19480501-20240411, 86.7%,76.0,73.0,99.8,73.0,99.8,72.0,Dfb
USC00350471,726917-24284,31.66906380183745,3.2,43.1502,-124.4003,8.2,OR,BANDON 2 NNE,-8,19481001-20210527, 89.1%,73.0,73.0,98.6,73.0,98.6,73.0,Csb
USC00366111,725200-94823,41.77359979656137,78.89999999999998,40.412,-79.7245,262.1,PA,MURRYSVILLE 2 SW,-5,19480501-20240301, 79.2%,74.0,73.0,98.7,74.0,99.2,73.0,Dfa
USC00045983,725957-24215,0.931754067233616,4.2999999999999545,41.3167,-122.3167,1078.7,CA,MOUNT SHASTA WSO CITY,-8,19480801-20240322, 86.3%,72.0,72.0,99.0,72.0,99.4,72.0,Csb
USC00032544,723418-13977,49.109582170265966,13.900000000000006,33.7222,-94.3975,128.9,AR,FOREMAN,-6,19480501-20240202, 83.8%,72.0,72.0,93.3,72.0,94.4,72.0,Cfa
USC00242584,727755-24112,47.62503681899583,37.5,47.8433,-111.5795,1095.5,MT,DUTTON 6 E,-7,19480701-20240404, 92.1%,72.0,72.0,91.3,72.0,93.9,70.0,BSk
USC00330493,725210-14895,32.30350718714313,67.80000000000001,40.6335,-81.5577,300.2,OH,BEACH CITY LAKE,-5,19480801-20240201, 79.9%,74.0,72.0,99.7,72.0,99.5,72.0,Dfa
USC00331818,725260-14860,35.07628330590185,26.90000000000001,41.9602,-80.5728,195.1,OH,CONNEAUT,-5,19480801-20240415, 74.9%,73.0,72.0,99.8,73.0,99.7,72.0,
USC00486597,725744-24027,32.14266803878132,6.900000000000091,41.3185,-108.9176,2053.1,WY,MUD SPRINGS,-7,19530509-20240414, 89.4%,72.0,72.0,99.5,72.0,100.0,70.0,BSk
USC00412404,722590-03927,41.69617005839479,45.0,33.2333,-97.2,210.0,TX,DENTON EXP STN,-6,19460801-20240307, 92.0%,72.0,72.0,92.4,72.0,93.2,72.0,Cfa
USC00270998,726050-14745,47.68778023556819,43.900000000000006,43.5984,-71.7185,146.9,NH,BRISTOL,-5,19480501-20181011, 85.3%,71.0,71.0,99.8,71.0,99.9,71.0,Dfb
USC00049053,725895-94236,28.48688893015616,13.200000000000044,41.96,-121.4745,1230.8,CA,TULELAKE,-8,19480701-20240404, 92.6%,71.0,71.0,90.4,72.0,88.3,70.0,BSk
USC00380736,747900-13849,36.847720208252646,19.700000000000003,34.2246,-80.2191,53.3,SC,BISHOPVILLE 1.4 ENE,-5,19480601-20180228, 86.3%,71.0,71.0,99.4,71.0,99.1,71.0,Cfa
USC00153929,724240-13807,45.49459059074451,10.199999999999989,37.5316,-85.735,240.2,KY,HODGENVILLE LINCOLN P,-5,19480801-20200901, 81.5%,71.0,71.0,99.3,71.0,99.6,71.0,Cfa
USC00416177,722446-93987,44.13817648952013,45.6,31.6163,-94.643,132.6,TX,NACOGDOCHES,-6,19471001-20240207, 79.0%,71.0,71.0,98.9,71.0,99.2,71.0,Cfa
USC00176435,726071-14606,14.859668282377124,40.3,44.8785,-68.6688,17.7,ME,ORONO 2,-5,19540801-20240401, 89.3%,71.0,71.0,99.7,71.0,99.8,71.0,Dfb
USC00113262,725430-94822,43.94197958537471,7.599999999999994,42.2972,-89.6038,228.6,IL,FREEPORT WASTE WTR PL,-6,19480701-20240401, 92.9%,71.0,71.0,91.4,71.0,92.7,71.0,Dfa
USC00308586,725180-14735,46.682059468473845,6.400000000000006,42.9464,-74.2886,91.4,NY,TRIBES HILL,-5,19480501-20240326, 79.5%,71.0,71.0,100.0,71.0,100.0,71.0,Dfb
USC00110583,725430-94822,19.964083022076487,8.5,42.255,-88.864,229.5,IL,BELVIDERE WWTP,-6,19480701-20240411, 89.7%,71.0,71.0,91.8,71.0,93.8,71.0,Dfa
USC00097605,723200-93801,21.454216223484664,19.40000000000001,34.165,-85.2583,213.4,GA,ROME 8 SW,-5,19480601-20240302, 89.2%,71.0,71.0,87.1,71.0,90.4,71.0,Cfa
USC00264698,725805-24172,14.537764367516653,22.0,40.17,-118.4776,1211.0,NV,LOVELOCK,-8,19520923-20240402, 92.2%,70.0,70.0,95.0,69.0,97.9,60.0,BWk
USC00144178,724586-03919,33.70442069793667,69.80000000000001,38.6078,-97.9596,454.8,KS,KANOPOLIS LAKE,-6,19480801-20240401, 93.8%,70.0,70.0,91.0,70.0,92.1,70.0,Dfa
USC00435366,726170-14742,44.850030441862,88.0,44.5618,-72.6027,189.0,VT,MORRISVILLE,-5,19480501-20170710, 83.2%,70.0,70.0,99.8,70.0,99.9,70.0,Dfb
USC00294366,723650-23050,39.22631341676364,24.299999999999955,35.3886,-106.5438,1642.3,NM,JEMEZ DAM,-7,19531001-20240402, 89.0%,70.0,70.0,100.0,70.0,100.0,66.0,BWk
USC00275780,726050-14745,40.19063390085923,92.1,43.4758,-71.1788,195.1,NH,NEW DURHAM 3 NNW,-5,19480501-20190515, 87.8%,72.0,70.0,99.8,70.0,99.9,70.0,Dfb
USC00419499,722630-23034,42.38260894790952,62.700000000000045,31.6725,-100.7283,644.7,TX,WATER VALLEY,-6,19531001-20240402, 88.6%,71.0,70.0,100.0,71.0,100.0,69.0,BSk
USC00414679,722595-13911,42.06089243451155,13.099999999999994,33.1167,-97.3,198.1,TX,JUSTIN 2 N,-6,19540104-20230706, 90.7%,70.0,70.0,99.4,70.0,99.3,70.0,Cfa
USC00091619,723110-13873,47.99998229907904,34.80000000000001,34.3656,-83.2328,204.2,GA,CARNESVILLE,-5,19480601-20240412, 87.1%,70.0,70.0,89.9,70.0,90.5,70.0,Cfa
USC00331466,725246-14891,15.608670955311128,86.60000000000002,40.7403,-82.3574,312.4,OH,CHARLES MILL LAKE,-5,19480801-20240401, 88.4%,70.0,70.0,89.0,71.0,88.2,70.0,Dfa
USC00153798,746710-13806,7.119398899848391,3.300000000000012,36.6702,-87.5588,170.7,KY,HERNDON 5S,-6,19480801-20240301, 84.5%,70.0,70.0,93.6,70.0,95.1,70.0,Cfa
USC00452675,727935-24234,49.1605985009534,7.0,47.9753,-122.195,14.0,WA,EVERETT,-8,19480701-20240401, 86.6%,70.0,70.0,90.6,70.0,89.3,70.0,Csb
USC00478589,726430-14920,20.812870065335392,3.1999999999999886,43.9994,-91.4378,201.2,WI,TREMPEALEAU DAM 6,-6,19480801-20240401, 80.9%,72.0,70.0,98.0,71.0,98.5,71.0,Dfa
USC00045741,724920-23237,33.76685109683526,19.1,37.6255,-121.0313,27.1,CA,MODESTO 2,-8,19480701-20240412, 94.9%,69.0,69.0,90.6,70.0,92.0,69.0,BSk
USC00030530,723405-03930,28.805626671206205,17.799999999999997,35.0644,-91.8961,76.2,AR,BEEBE,-6,19480501-20240209, 87.0%,69.0,69.0,94.6,69.0,94.0,69.0,Cfa
USC00051539,724635-23067,8.339619498342094,14.0,38.115,-103.51,1264.0,CO,CHERAW 1 N,-7,19480806-20240402, 92.0%,69.0,69.0,91.4,69.0,94.8,66.0,BSk
USC00450986,727976-24217,30.701299368244904,30.1,48.55,-122.3333,14.9,WA,BURLINGTON 5 N,-8,19480701-20240416, 90.3%,69.0,69.0,88.3,69.0,87.5,69.0,Csb
USC00423348,725720-24127,49.80845565535251,98.79999999999995,40.602,-112.5076,1386.8,UT,GRANTSVILLE 2W,-7,19560601-20240402, 94.0%,69.0,69.0,100.0,69.0,100.0,69.0,BSk
USC00093460,722060-13889,47.45499379175648,2.1,30.7997,-82.0313,9.1,GA,FOLKSTON 3 SW,-5,19480701-20161202, 90.7%,69.0,69.0,100.0,69.0,100.0,69.0,Cfa
USC00415957,722597-93985,5.494979853291857,29.399999999999977,32.7863,-98.1183,257.6,TX,MINERAL WELLS 1 SSW,-6,19520324-20240208, 83.4%,71.0,69.0,93.4,72.0,95.6,70.0,Cfa
USC00243176,727680-94008,26.896176614185084,65.79999999999995,48.0121,-106.4117,631.2,MT,FORT PECK POWER PLANT,-7,19561201-20240423, 94.9%,69.0,69.0,99.7,68.0,100.0,66.0,BSk
USC00475364,726463-14897,28.92818641913265,15.0,45.1785,-89.6615,381.0,WI,MERRILL,-6,19480801-20240404, 86.3%,68.0,68.0,89.2,69.0,92.0,67.0,Dfb
USC00364763,725115-14711,44.944231984861545,12.700000000000005,40.0499,-76.2742,82.3,PA,LANCASTER 2 NE FILT PLANT,-5,19480501-20231019, 75.9%,68.0,68.0,90.0,68.0,91.3,67.0,Dfa
USC00368026,725266-04751,42.11763550128404,56.79999999999996,41.7095,-79.1261,585.2,PA,SHEFFIELD 5 W,-5,19480501-20240301, 86.8%,68.0,68.0,85.3,68.0,85.1,68.0,Dfb
USC00150611,724350-03816,44.0561488563612,12.700000000000005,36.858,-88.3363,111.3,KY,BENTON,-6,19480801-20240304, 84.2%,68.0,68.0,87.2,69.0,90.1,68.0,Cfa
USC00449151,745980-13702,39.188055892989766,18.3,37.3017,-76.7039,21.3,VA,WILLIAMSBURG 2 N,-5,19480801-20151001, 87.5%,68.0,68.0,99.9,68.0,99.8,68.0,Cfa
USC00309000,726227-94790,11.586507616051357,57.5,43.9761,-75.8753,151.5,NY,WATERTOWN,-5,19480501-20240401, 92.0%,68.0,68.0,84.4,68.0,86.8,68.0,Dfb
USC00311241,723170-13723,45.63842402840256,79.9,36.0936,-79.4321,195.1,NC,BURLINGTON,-5,19480601-20240411, 81.7%,68.0,68.0,90.3,68.0,93.1,68.0,Cfa
USC00127482,725335-99999,46.58313454835519,15.400000000000006,41.0665,-86.2096,231.6,IN,ROCHESTER,-5,19481013-20240401, 85.1%,68.0,68.0,86.4,67.0,88.1,67.0,Dfa
USC00125337,725335-99999,42.202120178667805,6.199999999999989,40.58,-85.6586,240.8,IN,MARION 2 N,-5,19530613-20240401, 92.5%,68.0,68.0,93.5,68.0,93.5,68.0,Dfa
USC00252010,725560-14941,30.925630158573043,17.80000000000001,41.7063,-97.3637,493.8,NE,CRESTON,-6,19480801-20151217, 86.1%,68.0,68.0,99.9,68.0,99.6,67.0,Dfa
USC00041142,723965-93209,45.4799554515429,32.89999999999998,35.7989,-121.0939,281.9,CA,BRYSON,-8,19480701-20231202, 90.4%,68.0,68.0,90.9,68.0,89.7,68.0,Csb
USC00044025,724917-23233,26.303251189484648,60.8,36.8483,-121.4213,83.8,CA,HOLLISTER 2,-8,19480701-20240402, 86.3%,69.0,68.0,88.2,69.0,90.6,67.0,Csb
USW00093809,724350-03816,36.777351316029645,25.90000000000001,37.0401,-89.1842,98.1,IL,CAIRO 3N,-6,19480701-20240312, 90.2%,68.0,68.0,86.0,66.0,87.0,67.0,Cfa
USC00041018,725845-23225,20.801959792281675,30.299999999999955,39.4539,-120.6556,1641.3,CA,BOWMAN DAM,-8,19480701-20160601, 85.0%,68.0,68.0,97.4,68.0,97.3,68.0,Csb
USC00106174,726815-24106,14.705243458725896,44.10000000000002,43.1261,-115.7119,957.1,ID,MOUNTAIN HOME,-7,19480701-20170405, 86.2%,68.0,68.0,94.9,68.0,92.9,65.0,BWk
USC00121147,725335-99999,27.83702166263385,13.800000000000011,40.4835,-86.3961,233.2,IN,BURLINGTON,-5,19501103-20240402, 94.8%,68.0,68.0,91.0,68.0,90.8,68.0,Dfa
USC00317079,723060-13722,13.23805886723713,1.9000000000000057,35.7908,-78.6988,121.9,NC,RALEIGH STATE UNIV,-5,19480601-20240410, 76.0%,69.0,67.0,100.0,68.0,100.0,67.0,Cfa
USC00137602,725480-94910,23.176764272813404,20.399999999999977,42.7042,-92.5906,284.4,IA,SHELL ROCK 1 SW,-6,19480801-20240302, 93.3%,67.0,67.0,87.4,67.0,89.7,67.0,Dfa
USC00138315,725480-94910,40.85225632911854,21.0,42.1865,-92.4722,285.0,IA,TRAER,-6,19480801-20240401, 95.3%,67.0,67.0,87.8,67.0,89.7,67.0,Dfa
USC00418081,722516-12928,33.12779659014347,1.4000000000000004,27.2169,-97.6955,11.6,TX,SARITA 7 E,-6,19410901-20190501, 86.0%,67.0,67.0,87.8,67.0,88.8,67.0,BSh
USC00389327,723100-13883,47.94735354379187,93.5,34.3706,-81.0825,161.5,SC,WINNSBORO,-5,19480701-20240304, 71.8%,68.0,67.0,100.0,67.0,100.0,67.0,Cfa
USC00200230,725370-94847,28.501014865067884,56.80000000000001,42.2981,-83.6639,247.8,MI,ANN ARBOR U OF MICH,-5,19480701-20240401, 94.9%,67.0,67.0,87.8,67.0,89.7,67.0,Dfa
USC00364778,725115-14711,30.2417693153394,14.700000000000005,40.119,-76.4265,109.7,PA,LANDISVILLE 2 NW,-5,19520401-20231019, 86.6%,67.0,67.0,90.4,67.0,90.3,65.0,Dfa
USC00331592,724285-13812,22.301438443698395,20.30000000000001,39.6104,-82.9555,205.7,OH,CIRCLEVILLE,-5,19480801-20240410, 83.5%,68.0,67.0,92.3,67.0,94.5,67.0,Dfa
USC00232568,724467-13930,45.57546928521117,5.899999999999977,38.868,-94.0352,259.1,MO,ELM,-6,19560801-20240201, 85.4%,67.0,67.0,96.5,67.0,97.6,66.0,Dfa
USC00126864,725335-99999,14.262580428106451,45.80000000000001,40.7646,-86.074,201.2,IN,PERU,-5,19480701-20240401, 85.4%,67.0,67.0,85.6,67.0,85.3,67.0,Dfa
USC00208246,726387-14850,4.480986543672876,0.9000000000000057,44.7686,-85.5763,184.1,MI,TRAVERSE CITY,-5,19580411-20240401, 93.7%,67.0,67.0,99.5,67.0,99.5,67.0,Dfb
USC00341750,723530-13967,46.68351301161749,58.30000000000001,35.0488,-97.9158,330.7,OK,CHICKASHA EXP STATION,-6,19580328-20240401, 91.7%,67.0,67.0,100.0,67.0,100.0,67.0,Cfa
USC00330059,725240-14820,35.91556052775541,7.400000000000006,41.1573,-81.5664,228.6,OH,AKRON WPCS,-5,19570301-20240401, 90.8%,67.0,67.0,99.5,67.0,99.6,67.0,Dfa
USC00087886,722110-12842,21.68310276946738,9.7,27.7833,-82.6333,10.7,FL,ST PETERSBURG,-5,19460201-20150102, 91.1%,68.0,67.0,96.6,67.0,96.2,67.0,Cfa
USC00047902,723925-23190,14.277639810754057,2.9000000000000004,34.4167,-119.6844,4.9,CA,SANTA BARBARA,-8,19480701-20240402, 91.4%,67.0,67.0,89.8,68.0,89.6,66.0,Csb
USC00319476,723066-13713,39.37198834740711,0.5,35.6939,-77.9461,33.5,NC,WILSON 3 SW,-5,19400801-20240415, 82.6%,67.0,67.0,83.5,67.0,87.7,66.0,Cfa
USC00151631,724350-03816,45.620751386997405,2.0999999999999943,36.6833,-89.0,121.9,KY,CLINTON,-6,19480801-20220817, 88.4%,66.0,66.0,87.1,66.0,88.6,66.0,Cfa
USC00417140,722550-12912,42.908328977318526,26.9,28.6575,-96.5553,6.1,TX,POINT COMFORT,-6,19571101-20240409, 93.5%,66.0,66.0,94.5,66.0,95.8,66.0,Cfa
USC00206300,725390-14836,43.812133135464485,38.5,43.0161,-84.18,222.5,MI,OWOSSO WWTP,-5,19550831-20240401, 85.7%,66.0,66.0,94.4,65.0,95.6,65.0,Dfa
USC00337698,724290-93815,44.4667044732112,11.899999999999975,40.2983,-84.1633,313.9,OH,SIDNEY HIWAY DEPT,-5,19480801-20161101, 78.4%,66.0,66.0,100.0,66.0,100.0,66.0,Dfa
USC00356238,726835-24230,32.5989832503688,8.200000000000045,44.2994,-120.7264,931.8,OR,OCHOCO DAM,-8,19481001-20130201, 84.5%,66.0,66.0,99.5,65.0,99.8,65.0,BSk
USC00413285,722595-13911,16.421275598748103,11.300000000000011,32.8342,-97.2981,196.3,TX,FT WORTH WSFO,-6,19480501-20240325, 79.5%,66.0,66.0,99.3,66.0,99.1,65.0,Cfa
USC00344978,723530-13967,13.34537778150777,1.8999999999999773,35.4879,-97.6645,387.1,OK,LAKE OVERHOLSER,-6,19520301-20160628, 91.2%,65.0,65.0,100.0,65.0,100.0,65.0,Cfa
USC00385946,722080-13880,39.50730553323866,3.9,33.2425,-79.9869,14.9,SC,MONCKS CORNER 4 N,-5,19480601-20181127, 78.8%,66.0,65.0,100.0,65.0,100.0,65.0,Cfa
USC00244983,726776-24036,0.5763054868804459,7.299999999999954,47.0512,-109.4426,1249.7,MT,LEWISTOWN 2 SW,-7,19531001-20240408, 78.0%,65.0,65.0,99.0,65.0,98.8,63.0,Dfb
USC00334979,724280-14821,40.704968075999496,49.69999999999999,40.1938,-83.2675,295.7,OH,MARYSVILLE,-5,19600526-20240422, 86.0%,65.0,65.0,100.0,65.0,100.0,65.0,Dfa
USC00238712,724467-13930,23.25844569499941,22.40000000000001,38.7841,-93.8008,242.6,MO,WARRENSBURG 4NW,-6,19530324-20240401, 76.3%,67.0,65.0,94.1,67.0,96.7,67.0,Dfa
USC00396170,726686-24025,12.882803890711216,19.100000000000023,44.4419,-100.4171,506.9,SD,OAHE DAM,-6,19600801-20240401, 92.4%,65.0,65.0,100.0,65.0,100.0,63.0,BSk
USC00335747,724280-14821,40.40395348845652,8.5,40.0875,-82.4128,254.5,OH,NEWARK WATER WORKS,-5,19561101-20240402, 83.2%,65.0,65.0,100.0,65.0,100.0,65.0,Dfa
USC00231711,724467-13930,39.95630087714778,30.30000000000001,38.395,-93.7711,234.7,MO,CLINTON,-6,19480801-20240401, 73.3%,65.0,65.0,87.2,65.0,89.1,65.0,Dfa
USC00042294,724836-23208,35.52163392588708,4.699999999999999,38.5349,-121.7761,18.3,CA,DAVIS 2 WSW EXP FARM,-8,19480701-20240405, 91.0%,65.0,65.0,82.1,66.0,84.7,64.0,Csa
USC00450729,727976-24217,27.95054061109436,39.8,48.9946,-122.7621,5.2,WA,BLAINE,-8,19480701-20240407, 82.6%,65.0,65.0,87.3,65.0,85.5,65.0,
USC00307549,725180-14735,44.95000776031221,48.4,43.1131,-73.5775,36.6,NY,SCHUYLERVILLE,-5,19480501-20140624, 82.2%,66.0,65.0,100.0,66.0,100.0,65.0,Dfa
USC00123206,725330-14827,41.73201309683655,25.19999999999999,41.3415,-85.1292,268.2,IN,GARRETT,-5,19601205-20240401, 91.8%,65.0,65.0,99.8,65.0,99.8,65.0,Dfa
USC00325993,727675-94011,25.85955109476225,31.200000000000045,48.1802,-101.2963,539.2,ND,MINOT EXP STATION,-6,19520901-20240301, 92.1%,65.0,65.0,86.4,65.0,91.5,64.0,Dfb
USC00049605,724836-23208,40.89413714416525,9.0,39.0277,-121.3908,32.0,CA,WHEATLAND 2 NE,-8,19480701-20240422, 94.9%,65.0,65.0,82.7,66.0,84.9,64.0,Csa
USC00323621,727575-94925,22.931891133053767,25.0,47.9217,-97.0975,253.0,ND,GRAND FORKS UNIV (NWS),-6,19601116-20240401, 78.4%,64.0,64.0,95.7,64.0,97.3,62.0,Dfb
USC00018517,723306-13825,31.7436161265877,24.5,33.7418,-88.1251,90.5,AL,VERNON,-6,19480601-20240425, 83.8%,64.0,64.0,81.3,64.0,81.1,64.0,Cfa
USC00331541,725210-14895,44.52570994386426,8.300000000000011,41.0517,-81.9361,359.7,OH,CHIPPEWA LAKE,-5,19510601-20150501, 89.9%,64.0,64.0,99.5,64.0,99.2,64.0,Dfa
USC00123418,725350-14848,38.90431565280369,31.69999999999999,41.5575,-85.8825,266.7,IN,GOSHEN 3SW,-5,19611101-20240409, 93.1%,64.0,64.0,99.9,64.0,100.0,64.0,Dfa
USC00126151,724320-93817,17.661028864450163,6.200000000000003,37.9325,-87.3744,115.8,IN,NEWBURGH LOCK & DAM,-6,19611201-20240304, 84.9%,64.0,64.0,99.9,64.0,100.0,64.0,Cfa
USC00045785,725955-24259,1.5707430141563086,0.2000000000000454,41.7815,-122.471,806.2,CA,MONTAGUE 5 NE,-8,19480701-20240317, 87.1%,64.0,64.0,89.9,64.0,91.1,64.0,Csa
USC00095165,723110-13873,20.5646680738324,17.69999999999999,33.8705,-83.1135,221.3,GA,LEXINGTON,-5,19520115-20180601, 84.3%,64.0,64.0,94.5,64.0,95.5,63.0,Cfa
USC00350126,726917-24284,17.05310391909195,10.2,43.4291,-124.0305,15.2,OR,ALLEGANY,-8,19480701-20121126, 91.5%,64.0,64.0,98.3,64.0,98.5,64.0,Csb
USC00220021,723306-13825,21.06335381207435,8.700000000000003,33.8301,-88.5206,57.3,MS,ABERDEEN,-6,19510829-20240407, 84.2%,64.0,64.0,85.5,64.0,88.7,64.0,Cfa
USC00228374,723306-13825,36.77129234482007,9.6,33.4691,-88.7822,56.4,MS,STATE UNIVERSITY,-6,19480601-20240304, 86.9%,64.0,64.0,79.5,64.0,77.3,64.0,Cfa
USC00227840,747686-13820,27.76922058870647,59.8,30.6263,-89.0549,69.8,MS,SAUCIER EXP FOREST,-6,19540501-20171201, 92.8%,64.0,64.0,99.3,64.0,99.3,64.0,Cfa
USC00211107,726550-14926,41.53163741174156,7.600000000000023,45.1969,-93.8399,302.4,MN,BUFFALO 2NE,-6,19480801-20130514, 87.7%,64.0,64.0,80.0,63.0,82.3,62.0,Dfa
USC00203947,726370-14826,38.7901033098465,55.89999999999998,42.6333,-83.9167,289.9,MI,HOWELL SEWAGE PLANT,-5,19610410-20240411, 91.5%,64.0,64.0,100.0,64.0,100.0,64.0,Dfa
USC00453515,727855-24114,48.03773693442044,91.89999999999998,47.4829,-118.2519,658.1,WA,HARRINGTON,-8,19611128-20230929, 90.9%,63.0,63.0,99.8,63.0,100.0,63.0,BSk
USC00472447,726463-14897,20.1325396975732,9.399999999999975,44.7722,-89.7675,356.6,WI,EAU PLEINE RESERVOIR,-6,19540408-20240310, 89.4%,63.0,63.0,88.3,64.0,89.6,63.0,Dfb
USC00012377,722269-03850,29.576104462289933,4.099999999999994,31.2833,-85.4,95.1,AL,DOTHAN 4 NW,-6,19520401-20240401, 84.4%,63.0,63.0,86.5,64.0,87.4,63.0,Cfa
USC00380613,723120-03870,38.955364316872384,92.8,34.6015,-82.4332,201.2,SC,BELTON 7 NNE,-5,19580601-20240402, 94.1%,63.0,63.0,94.0,63.0,92.8,63.0,Cfa
USC00357823,726940-24232,21.32979085537477,61.400000000000006,45.0058,-122.7739,124.4,OR,SILVERTON,-8,19620828-20240402, 93.6%,63.0,63.0,100.0,63.0,99.9,63.0,Csb
USC00042012,747020-23110,41.95375992183396,9.0,36.0975,-119.5817,61.0,CA,CORCORAN IRRIGATION DIST.,-8,19560119-20240325, 86.7%,63.0,63.0,90.6,63.0,92.5,62.0,BSk
USC00255112,725510-14939,47.34400372228168,28.0,41.2629,-96.6945,384.0,NE,MALMO 1 E,-6,19501101-20240301, 91.5%,63.0,63.0,83.5,63.0,89.3,63.0,Dfa
USC00471416,726410-14837,14.582763732730603,57.80000000000001,43.0596,-89.4819,318.8,WI,CHARMANY FARM,-6,19630718-20240401, 91.5%,62.0,62.0,100.0,62.0,100.0,62.0,Dfa
USC00125407,724380-93819,38.09496202776819,60.6,39.4043,-86.4526,180.4,IN,MARTINSVILLE 2 SW,-5,19620618-20240401, 83.6%,62.0,62.0,100.0,62.0,100.0,62.0,Dfa
USC00213202,726580-14922,18.11838022326433,18.80000000000001,44.9907,-93.3989,272.8,MN,GOLDEN VALLEY,-6,19630421-20240401, 88.7%,62.0,62.0,100.0,62.0,100.0,62.0,Dfa
USC00046624,723810-23114,40.713850951639,92.10000000000002,34.5883,-118.0938,796.1,CA,PALMDALE,-8,19630213-20240403, 95.3%,62.0,62.0,99.4,62.0,99.5,54.0,BSk
USC00472973,726436-94930,34.712357589863934,10.0,43.975,-89.8309,288.0,WI,FRIENDSHIP,-6,19480801-20240401, 88.9%,62.0,62.0,71.1,62.0,74.3,62.0,Dfa
USC00055765,724695-23036,39.2861903931832,54.0,39.6527,-105.203,1780.0,CO,MORRISON 1 SW,-7,19580101-20240402, 94.3%,62.0,62.0,92.9,62.0,93.5,62.0,Dfb
USC00474404,726436-94930,49.64932236437495,34.5,43.5734,-90.632,243.5,WI,LA FARGE,-6,19480801-20240401, 87.6%,62.0,62.0,74.2,62.0,79.3,61.0,Dfa
USC00478515,726436-94930,17.265068422376434,18.30000000000001,43.9713,-90.4679,296.3,WI,TOMAH RANGER STATION 2,-6,19480801-20240404, 86.6%,61.0,61.0,70.2,61.0,75.2,60.0,Dfa
USC00044712,745160-23202,26.589391259912222,39.0,38.492,-122.0039,57.0,CA,LAKE SOLANO,-8,19621001-20240401, 93.4%,61.0,61.0,97.0,61.0,97.4,60.0,Csa
USC00421008,724756-23159,7.078518185936688,95.90000000000008,37.641,-112.1702,2404.9,UT,BRYCE CANYON NP HQRS,-7,19590601-20190903, 93.0%,61.0,61.0,91.9,61.0,93.5,61.0,BSk
USC00120922,724370-93823,16.541274298114537,32.0,39.5108,-87.1241,207.0,IN,BRAZIL,-5,19480701-20240401, 93.8%,61.0,61.0,79.7,62.0,80.1,61.0,Dfa
USC00411646,722636-93042,40.85850383009889,58.79999999999996,35.6869,-102.3341,1158.2,TX,CHANNING,-6,19410101-20220711, 89.2%,61.0,61.0,76.2,60.0,78.8,59.0,BSk
USC00346944,723546-13969,44.00564835455433,0.8000000000000114,36.4075,-96.8144,304.8,OK,PAWNEE 5 N,-6,19471001-20240417, 94.1%,60.0,60.0,79.3,60.0,85.4,60.0,Cfa
USC00131060,999999-14931,0.6589136731475511,3.6999999999999886,40.7747,-91.1165,210.3,IA,BURLINGTON 2S,-6,19641216-20240406, 82.7%,60.0,60.0,100.0,60.0,100.0,59.0,Dfa
USC00048680,724917-23233,33.68013369435219,1.3999999999999986,36.8975,-121.8347,24.4,CA,SUNSET STATE BEACH,-8,19561120-20240331, 88.3%,60.0,60.0,88.7,60.0,88.4,59.0,Csb
USC00146498,724565-13920,33.61150172883794,9.0,38.6449,-95.566,324.0,KS,POMONA LAKE,-6,19630708-20240301, 88.2%,59.0,59.0,93.2,59.0,95.8,59.0,Dfa
USC00142980,724515-23064,11.449563160390436,3.899999999999977,37.993,-100.8121,880.9,KS,GARDEN CITY EXP STA,-6,19480801-20240402, 92.1%,59.0,59.0,80.1,59.0,86.6,59.0,BSk
USC00349629,723525-93986,41.300559861828575,34.5,34.7325,-98.7125,507.5,OK,WICHITA MOUNTAIN WLR,-6,19471001-20240401, 90.2%,59.0,59.0,75.2,59.0,81.4,59.0,Cfa
USC00158824,746716-93808,31.398068048171268,24.90000000000001,37.1852,-86.6335,134.1,KY,WOODBURY,-6,19480801-20240415, 89.5%,59.0,59.0,73.6,60.0,79.3,59.0,Cfa
USC00419417,722560-13959,1.1178309089526817,0.0999999999999943,31.6003,-97.2169,150.9,TX,WACO DAM,-6,19650224-20230927, 82.9%,59.0,59.0,100.0,59.0,100.0,58.0,Cfa
USC00367186,725130-14777,43.40504526205509,85.89999999999998,41.589,-75.3303,374.9,PA,PROMPTON DAM,-5,19660501-20240402, 78.5%,59.0,59.0,99.9,59.0,99.7,58.0,Dfb
USC00110330,724396-93989,39.5616342178416,29.40000000000001,40.2332,-90.9467,203.6,IL,AUGUSTA,-6,19480701-20240401, 88.3%,59.0,59.0,80.8,59.0,80.7,58.0,Dfa
USW00013957,722485-13944,16.49787771930049,19.5,32.4473,-93.8244,69.5,LA,SHREVEPORT AP,-6,19471001-20131231, 88.3%,59.0,59.0,95.6,59.0,95.7,59.0,Cfa
USC00050109,724698-24015,6.0276141233645,43.59999999999991,40.1551,-103.1418,1384.4,CO,AKRON 4 E,-7,19480801-20240401, 95.3%,59.0,59.0,77.1,59.0,78.2,59.0,BSk
USC00415192,722580-13960,31.44586649047826,22.5,33.0694,-97.0094,169.5,TX,LEWISVILLE DAM,-6,19640201-20240226, 78.5%,59.0,59.0,100.0,59.0,99.8,59.0,Cfa
USC00141740,723495-13987,35.168463422972884,21.100000000000023,37.25,-94.8667,274.9,KS,COLUMBUS 6 NNW,-6,19480801-20240401, 94.6%,59.0,59.0,75.4,59.0,76.3,59.0,Cfa
USC00143984,724507-13981,28.59072559295939,7.199999999999989,37.9233,-95.4241,290.8,KS,IOLA 1 W,-6,19510101-20240415, 78.9%,59.0,59.0,90.5,60.0,94.0,59.0,Dfa
USC00234273,724338-13802,37.75658856144882,10.400000000000006,38.5038,-90.28,149.4,MO,JEFFERSON BARRACKS,-6,19590416-20170407, 76.7%,59.0,58.0,99.8,58.0,99.8,58.0,Dfa
USC00237263,724457-03938,40.0665977228484,4.5,37.9567,-91.7762,357.5,MO,ROLLA MISSOURI S&T,-6,19480801-20240401, 89.1%,59.0,58.0,76.1,59.0,80.1,58.0,Dfa
USC00083538,722269-03850,37.62138893461559,42.2,30.9575,-85.533,48.8,FL,GRACEVILLE 1 SW,-6,19420101-20200710, 78.9%,58.0,58.0,77.5,58.0,79.6,58.0,Cfa
USC00304174,725156-14748,49.82015894685378,7.600000000000023,42.4492,-76.4491,292.6,NY,ITHACA CORNELL UNIV,-5,19480501-20240313, 85.8%,58.0,58.0,70.7,58.0,72.2,58.0,Dfb
USC00273850,726116-94765,9.5453385715938,10.0,43.7052,-72.2855,178.0,NH,HANOVER,-5,19480601-20240402, 88.6%,58.0,58.0,72.9,58.0,76.6,58.0,Dfb
USC00339422,724286-93824,10.206897912069987,54.6,39.9125,-82.0042,213.4,OH,ZANESVILLE WWTP,-5,19480801-20240301, 73.9%,58.0,57.0,71.2,57.0,72.1,56.0,Dfa
USC00233601,724396-93989,27.88460934583045,16.0,39.7232,-91.3747,217.0,MO,HANNIBAL WATER WORKS,-6,19500401-20240402, 89.6%,57.0,57.0,75.4,57.0,79.0,57.0,Dfa
USC00209218,725370-94847,24.40728488530421,49.5,42.2469,-83.6256,240.5,MI,YPSILANTI E MICH U,-5,19480101-20240402, 64.3%,57.0,57.0,95.1,56.0,97.0,56.0,Dfa
USC00332791,725366-14825,4.018376733058776,11.900000000000006,41.0461,-83.6622,234.1,OH,FINDLAY WPCC,-5,19480801-20240402, 91.9%,57.0,57.0,79.8,58.0,83.1,57.0,Dfa
USC00413370,722580-13960,40.44445782135362,80.69999999999999,33.1924,-96.793,227.7,TX,FRISCO,-6,19661010-20221229, 87.6%,57.0,57.0,100.0,57.0,100.0,55.0,Cfa
USC00204155,725395-14833,3.832834872300524,7.0,42.2884,-84.4236,288.0,MI,JACKSON 3N,-5,19480701-20240201, 85.9%,57.0,57.0,77.3,57.0,82.0,57.0,Dfa
USC00274218,726050-14745,19.9794385898746,28.099999999999994,43.189,-71.746,131.1,NH,HOPKINTON LAKE,-5,19630627-20190725, 87.6%,57.0,57.0,99.6,57.0,99.9,57.0,Dfb
USC00334403,724285-13812,29.512690981265383,26.099999999999994,39.7156,-82.6073,252.1,OH,LANCASTER,-5,19651210-20240401, 85.1%,57.0,57.0,91.5,57.0,95.5,57.0,Dfa
USC00291469,722687-93033,3.268818534994901,39.0,32.3479,-104.2224,951.0,NM,CARLSBAD,-7,19471001-20221104, 91.7%,57.0,57.0,77.7,57.0,78.5,54.0,BSk
USC00488070,725745-24057,46.13861468871367,29.19999999999981,42.1569,-106.9153,2084.2,WY,SEMINOE DAM,-7,19480801-20201209, 86.1%,57.0,57.0,79.1,57.0,79.5,57.0,BSk
USC00047489,725845-23225,49.46869972290133,50.40000000000009,38.9027,-120.3766,1560.6,CA,ROBBS PEAK PH,-8,19670201-20240402, 95.3%,57.0,57.0,97.7,57.0,97.4,57.0,Csb
USC00170273,743920-14611,46.154285099018274,12.2,44.3007,-69.7792,8.8,ME,AUGUSTA,-5,19521001-20181025, 80.1%,57.0,57.0,84.6,57.0,73.2,57.0,Dfb
USC00045853,724945-23293,36.803977919897015,99.3,37.1363,-121.6025,114.3,CA,MORGAN HILL,-8,19480701-20240418, 89.0%,57.0,57.0,75.8,58.0,78.4,56.0,Csa
USC00014209,722287-13871,26.788844431574923,11.0,33.8259,-85.7812,192.0,AL,JACKSONVILLE,-6,19480601-20240403, 83.2%,57.0,57.0,73.8,57.0,74.3,56.0,Cfa
USC00234825,724457-03938,48.383859397648216,26.80000000000001,37.685,-92.6939,379.8,MO,LEBANON 2W,-6,19480801-20240401, 75.7%,56.0,56.0,73.0,56.0,76.7,55.0,Dfa
USC00214418,726430-14920,4.833599441105557,0.8000000000000114,43.8657,-91.31,197.2,MN,LA CRESCENT DAM 7,-6,19691101-20240304, 90.4%,56.0,56.0,99.9,56.0,100.0,55.0,Dfa
USC00418646,722576-03902,28.85275227585957,93.8,31.0372,-97.5283,215.2,TX,STILLHOUSE HOLLOW DAM,-6,19640522-20240304, 87.6%,56.0,56.0,94.6,56.0,95.7,56.0,Cfa
USC00294426,722695-99999,40.61993623909459,41.90000000000009,32.6161,-106.7404,1316.1,NM,JORNADA EXP RANGE,-7,19471101-20240401, 96.6%,57.0,56.0,70.8,56.0,76.2,53.0,BWk
USC00089010,722026-12826,33.13209965213224,3.0,25.7647,-80.4775,4.0,FL,TRAIL GLADE RANGES,-5,19661215-20240402, 74.5%,56.0,56.0,97.5,56.0,97.3,56.0,Am
USC00166244,722485-13944,36.18123166461528,6.399999999999999,32.6052,-93.2947,56.4,LA,MINDEN,-6,19640305-20211026, 86.1%,56.0,56.0,94.8,56.0,97.4,56.0,Cfa
USC00336702,725246-14891,26.64846243646658,56.10000000000002,40.6245,-82.3271,342.9,OH,PLEASANT HILL LAKE,-5,19660401-20240401, 82.6%,57.0,56.0,95.9,56.0,97.0,56.0,Dfa
USC00117077,724396-93989,20.534075605733847,85.80000000000001,39.9036,-91.4283,147.2,IL,QUINCY DAM 21,-6,19480701-20240314, 85.6%,56.0,56.0,74.8,56.0,75.0,55.0,Dfa
USC00484930,725645-24022,40.7726769652857,94.40000000000008,41.0599,-106.0263,2310.4,WY,JELM 2S,-7,19480801-20210626, 88.6%,56.0,56.0,76.7,56.0,70.1,56.0,Dfc
USC00410738,722576-03902,37.78080449535362,35.10000000000002,30.7625,-98.0213,344.1,TX,BERTRAM 3 ENE,-6,19680122-20240404, 96.5%,55.0,55.0,96.0,55.0,96.3,55.0,Cfa
USC00401150,723347-03809,43.9974590793274,25.099999999999994,35.6333,-89.2167,116.1,TN,BROWNSVILLE 5 NE,-6,19480901-20240402, 83.8%,56.0,55.0,71.0,56.0,78.5,56.0,Cfa
USC00208293,727435-99999,47.13941715321367,24.90000000000001,46.1796,-85.0311,250.9,MI,TROUT LAKE 1SW,-5,19480701-20140601, 82.6%,55.0,55.0,77.2,56.0,79.1,55.0,Dfb
USC00433914,726225-04742,45.22558996931951,17.700000000000003,44.9339,-73.0496,53.3,VT,HIGHGATE FALLS,-5,19480501-20230929, 84.5%,56.0,55.0,71.4,56.0,73.2,56.0,Dfb
USC00447338,724110-13741,37.61375979270039,54.80000000000001,36.9769,-79.8961,400.8,VA,ROCKY MOUNT,-5,19691009-20240401, 75.9%,56.0,55.0,100.0,56.0,100.0,55.0,Cfa
USC00150381,724243-03849,27.974942161947364,58.19999999999999,36.8825,-83.8819,301.8,KY,BARBOURVILLE,-5,19480801-20160916, 78.5%,55.0,55.0,72.6,55.0,73.2,55.0,Cfa
USC00332272,725210-14895,38.76056274963049,84.5,40.5622,-81.4092,283.5,OH,DOVER DAM,-5,19660401-20240201, 68.7%,58.0,55.0,99.2,56.0,98.9,56.0,Dfa
USC00355055,725970-24225,37.05214481463598,82.80000000000001,42.6714,-122.6772,482.8,OR,LOST CREEK DAM,-8,19700506-20240402, 93.4%,55.0,55.0,100.0,55.0,100.0,55.0,Csb
USC00050834,724650-23065,49.44558716083998,22.90000000000009,39.6567,-102.1193,1132.9,CO,BONNY DAM 2NE,-7,19510601-20240408, 60.4%,54.0,54.0,99.6,54.0,99.8,54.0,BSk
USC00044089,725945-24283,36.66765903421357,38.400000000000006,41.0483,-123.6755,102.4,CA,HOOPA,-8,19710601-20240401, 87.9%,54.0,54.0,99.6,54.0,99.8,54.0,Csa
USC00156170,724220-93820,36.59346729598606,55.69999999999999,38.2052,-84.2382,242.3,KY,PARIS,-5,19711101-20240401, 85.5%,54.0,54.0,100.0,54.0,100.0,54.0,Dfa
USC00237656,723495-13987,36.69990573041679,39.69999999999999,36.837,-94.6211,256.3,MO,SENECA,-6,19480801-20240404, 80.9%,57.0,54.0,71.7,56.0,76.4,56.0,Cfa
USC00426414,725750-24126,4.769546263569421,51.5,41.2307,-112.028,1304.5,UT,OGDEN SUGAR FACTORY,-7,19530624-20240411, 96.5%,54.0,54.0,78.7,54.0,79.2,53.0,BSk
USC00127999,724380-93819,46.96845120698676,11.800000000000011,39.5282,-85.7914,229.2,IN,SHELBYVILLE SEWAGE PLANT,-5,19710101-20240401, 83.7%,54.0,54.0,100.0,54.0,100.0,54.0,Dfa
USC00114317,724370-93823,49.19419725160027,27.80000000000001,39.11,-87.6657,147.2,IL,HUTSONVILLE,-6,19570724-20240406, 88.3%,54.0,54.0,78.4,54.0,81.5,54.0,Dfa
USC00253205,725526-99999,13.316296223565104,21.100000000000023,40.7344,-98.8453,627.9,NE,GIBBON,-6,19480801-20240404, 86.8%,54.0,54.0,71.1,54.0,80.2,54.0,Dfa
USC00487995,725745-24057,47.38531058579373,17.90000000000009,41.5047,-106.7888,2072.9,WY,SARATOGA 4N,-7,19480801-20171026, 87.7%,54.0,54.0,76.8,55.0,75.9,54.0,BSk
USC00034839,723418-13977,25.281158615580047,18.700000000000003,33.6772,-93.9902,96.3,AR,MILLWOOD DAM,-6,19630711-20210921, 84.0%,54.0,54.0,90.7,54.0,93.4,54.0,Cfa
USC00141351,724556-13989,49.10369157717408,97.3,38.0212,-96.6036,463.3,KS,CASSODAY 2SE,-6,19480801-20220602, 93.7%,55.0,54.0,74.9,55.0,75.0,54.0,Dfa
USC00120830,725330-14827,17.728648524087014,19.399999999999977,40.8143,-85.1546,262.4,IN,BLUFFTON 6N,-5,19710701-20240202, 89.3%,54.0,54.0,99.8,54.0,99.6,54.0,Dfa
USC00252655,725526-99999,32.052374134914075,36.79999999999996,40.6997,-99.38,685.8,NE,ELM CREEK 1 SSW,-6,19480801-20240401, 90.9%,54.0,54.0,70.8,54.0,80.2,54.0,Dfa
USC00406358,723340-13893,47.580261863781296,50.5,35.4552,-89.8116,126.5,TN,MUNFORD,-6,19480901-20240401, 57.8%,53.0,53.0,100.0,53.0,100.0,52.0,Cfa
USC00086842,747750-13846,22.4062128198097,3.5,30.2491,-85.6605,1.5,FL,PANAMA CITY 5N,-6,19711201-20240102, 87.8%,54.0,53.0,99.5,54.0,99.7,53.0,Cfa
USC00320450,727535-14919,46.35626855193835,57.80000000000001,47.036,-98.0831,397.2,ND,BALDHILL DAM,-6,19540101-20240401, 92.8%,53.0,53.0,77.5,53.0,79.1,53.0,Dfb
USC00032444,723445-93993,10.19341042252593,10.100000000000025,36.101,-94.1737,387.1,AR,FAYETTEVILLE EXP STA,-6,19660413-20240404, 87.3%,53.0,53.0,90.0,53.0,93.5,53.0,Cfa
USC00040546,725910-24216,29.005932209613835,20.0,40.3983,-122.1452,128.0,CA,BATTLE CREEK ADR,-8,19710701-20240401, 85.3%,53.0,53.0,97.1,53.0,97.5,53.0,Csa
USC00146333,724565-13920,28.610030871117345,23.30000000000001,39.1174,-95.4101,291.7,KS,PERRY LAKE,-6,19700209-20240131, 83.4%,53.0,53.0,91.7,53.0,94.4,52.0,Dfa
USC00365731,725156-14748,38.16785405908018,25.899999999999977,41.928,-76.5475,259.1,PA,MILAN 1 N,-5,19480501-20180924, 71.4%,52.0,52.0,80.9,52.0,79.9,52.0,Dfb
USC00129430,724386-14835,8.457513200353,34.80000000000001,40.475,-86.9919,215.8,IN,WEST LAFAYETTE 6 NW,-5,19530808-20240404, 93.5%,52.0,52.0,72.8,52.0,78.7,52.0,Dfa
USC00145306,724550-13947,12.23904276510993,45.69999999999999,39.0745,-96.8982,369.7,KS,MILFORD LAKE,-6,19670711-20240301, 86.0%,52.0,52.0,92.1,52.0,94.8,52.0,Dfa
USC00400876,723346-03811,36.83866047869633,0.1999999999999886,35.265,-88.9889,129.2,TN,BOLIVAR WATER WORKS,-6,19480901-20240410, 79.9%,52.0,52.0,76.0,52.0,83.8,52.0,Cfa
USC00298518,723656-23049,49.98080689766624,27.09999999999991,35.1766,-105.9438,1943.1,NM,STANLEY 2 NNE,-7,19541201-20230419, 89.0%,52.0,52.0,70.9,52.0,73.0,50.0,BSk
USC00256630,725570-14943,41.20130468307868,76.39999999999998,42.1152,-96.7058,408.4,NE,PENDER,-6,19490401-20240319, 91.8%,52.0,52.0,71.5,52.0,74.6,51.0,Dfa
USC00145210,724565-13920,48.71536928064801,18.5,38.5039,-95.7037,333.5,KS,MELVERN LAKE,-6,19730401-20240301, 89.4%,52.0,52.0,95.9,52.0,97.6,52.0,Dfa
USC00250245,725555-99999,29.20195004659509,57.0,41.6108,-99.9044,833.0,NE,ANSELMO 2 WSW,-6,19480801-20240311, 92.3%,52.0,52.0,75.5,52.0,81.0,52.0,Dfa
USC00058429,724645-23070,16.582762649597147,88.90000000000009,37.1787,-104.487,1837.9,CO,TRINIDAD,-7,19730501-20240401, 92.4%,52.0,52.0,99.7,52.0,98.9,52.0,BSk
USC00147922,724516-99999,45.83017373709796,19.899999999999977,37.4415,-100.9793,898.9,KS,SUBLETTE 7WSW,-6,19580224-20240419, 87.9%,52.0,52.0,77.1,52.0,83.8,51.0,BSk
USC00252020,725510-14939,27.34426989254367,89.0,40.6092,-96.872,445.0,NE,CRETE 4ESE,-6,19720701-20240303, 86.0%,52.0,52.0,99.0,52.0,99.5,52.0,Dfa
USC00047867,723965-93209,11.760135086335588,24.099999999999994,35.7527,-120.6827,224.9,CA,SAN MIGUEL WOLF RANCH,-8,19731220-20240401, 91.5%,52.0,52.0,99.9,52.0,100.0,50.0,Csa
USC00018670,722280-13876,27.34221195204391,34.599999999999994,33.7953,-86.8258,152.4,AL,WARRIOR,-6,19720425-20240417, 79.1%,52.0,52.0,100.0,52.0,100.0,52.0,Cfa
USC00136076,725450-14990,49.24076010505208,13.099999999999994,41.517,-92.0597,242.9,IA,NORTH ENGLISH,-6,19480801-20240403, 84.6%,52.0,52.0,71.5,52.0,76.3,52.0,Dfa
USC00135823,725570-14943,27.175730999113306,33.80000000000001,42.4916,-96.0688,365.8,IA,MOVILLE,-6,19480801-20240401, 90.0%,52.0,52.0,73.4,52.0,82.2,52.0,Dfa
USC00407359,746716-93808,42.45683186760785,83.0,36.5877,-86.5258,242.0,TN,PORTLAND SEWAGE PLANT,-6,19530601-20240404, 81.0%,52.0,52.0,72.9,52.0,78.1,51.0,Cfa
USC00334459,724297-93812,33.32028518616995,64.80000000000001,39.3691,-84.2398,208.8,OH,LEBANON 4 SE,-5,19661107-20240410, 74.1%,52.0,52.0,87.2,52.0,89.4,52.0,Dfa
USC00035754,723417-93988,9.58320057319768,8.099999999999994,34.2255,-92.0185,70.1,AR,PINE BLUFF,-6,19530101-20240304, 88.7%,52.0,52.0,70.8,52.0,73.4,52.0,Cfa
USC00214793,726555-99999,47.04976487450712,32.60000000000002,46.0039,-94.345,341.4,MN,LITTLE FALLS 2NNE,-6,19721019-20240401, 79.7%,52.0,52.0,98.6,52.0,98.2,52.0,Dfa
USC00114442,724390-93822,45.77757777064604,6.900000000000006,39.7346,-90.1979,185.9,IL,JACKSONVILLE 2E,-6,19630407-20240401, 90.7%,52.0,52.0,89.1,52.0,89.1,52.0,Dfa
USC00346935,723565-99999,31.71081098201648,37.5,36.6691,-96.3472,254.5,OK,PAWHUSKA,-6,19500201-20240313, 93.9%,52.0,52.0,70.8,52.0,79.0,52.0,Cfa
USC00112353,724350-03816,44.16894341573875,36.6,37.4388,-88.6678,160.6,IL,DIXON SPRINGS AGRIC CNTR,-6,19670921-20240308, 91.1%,52.0,52.0,89.9,52.0,92.6,52.0,Cfa
USC00042048,724917-23233,40.950782193263365,59.3,36.9897,-121.805,82.3,CA,CORRALITOS,-8,19580415-20211004, 75.8%,52.0,52.0,85.9,51.0,86.2,49.0,Csb
USC00418942,723418-13977,9.146465169100264,3.9000000000000057,33.4368,-94.0773,118.9,TX,TEXARKANA,-6,19680917-20240308, 86.5%,52.0,52.0,92.5,52.0,95.4,52.0,Cfa
USC00111290,724338-13802,43.13976019139034,13.699999999999989,38.6249,-89.363,152.7,IL,CARLYLE RESERVOIR,-6,19700701-20240405, 78.6%,52.0,52.0,99.9,52.0,100.0,52.0,Dfa
USC00255312,725625-99999,4.615812194393549,5.899999999999977,40.2161,-100.6301,787.9,NE,MC COOK #2,-6,19670913-20240409, 82.3%,52.0,52.0,91.7,52.0,94.7,52.0,Dfa
USC00311881,723066-13713,45.28605137912897,15.200000000000005,35.0251,-78.276,48.2,NC,CLINTON 2 NE,-5,19710201-20240415, 81.0%,52.0,52.0,95.4,52.0,96.4,52.0,Cfa
USC00313638,723067-93726,42.26469938961085,18.2,35.64,-77.3984,9.8,NC,GREENVILLE,-5,19551011-20240306, 80.8%,55.0,52.0,74.7,54.0,85.2,53.0,Cfa
USC00042935,745160-23202,9.63068857764834,15.5,38.288,-122.0344,33.5,CA,FAIRFIELD 3 NNE,-8,19720201-20240402, 92.1%,52.0,52.0,98.7,52.0,98.6,51.0,Csa
USC00418531,722544-13958,42.40910258550258,55.10000000000002,30.4813,-98.1607,259.1,TX,SPICEWOOD,-6,19680301-20190201, 89.3%,52.0,52.0,99.1,52.0,99.4,52.0,Cfa
USC00164739,722487-13935,40.90507793020024,4.699999999999999,31.4825,-91.8627,21.3,LA,JONESVILLE LOCKS,-6,19720406-20231201, 82.5%,51.0,51.0,97.8,51.0,98.2,51.0,Cfa
USC00210116,726557-14910,4.483451447922694,5.300000000000011,45.8966,-95.3657,426.7,MN,ALEXANDRIA WATER TREATMENT PLANT,-6,19711001-20240304, 81.5%,51.0,51.0,96.3,52.0,96.4,51.0,Dfa
USC00441614,724106-13728,33.01282574762567,91.10000000000002,36.8667,-79.3167,259.1,VA,CHATHAM 4 N,-5,19610105-20240408, 81.0%,51.0,51.0,75.6,51.0,79.8,51.0,Cfa
USC00034548,723419-93992,34.88047014584337,35.400000000000006,33.2586,-93.1822,113.4,AR,MAGNOLIA,-6,19480501-20240314, 52.7%,51.0,51.0,97.3,51.0,98.9,51.0,Cfa
USC00455876,727976-24217,31.40827319513989,79.7,48.8975,-122.1431,124.7,WA,NOOKSACK - KENDALL CREEK HATCHERY,-8,19640116-20240410, 81.3%,52.0,51.0,85.3,51.0,82.8,51.0,Cfb
USC00339211,724286-93824,24.372213228786244,30.30000000000001,40.1563,-81.8437,237.7,OH,WILLS CREEK LAKE,-5,19660401-20240301, 77.0%,52.0,51.0,83.8,52.0,89.4,52.0,Dfa
USC00145852,724655-93990,49.95582257562537,48.10000000000002,39.8114,-99.9386,715.1,KS,NORTON DAM,-6,19630403-20240404, 81.8%,52.0,51.0,84.8,51.0,87.4,49.0,Dfa
USC00044689,725905-23275,9.319348414507807,49.900000000000006,39.203,-123.185,232.9,CA,LAKE MENDOCINO DAM,-8,19720601-20240403, 81.6%,52.0,51.0,98.8,52.0,98.8,52.0,Csa
USC00312631,723170-13723,46.21636784957551,68.30000000000001,36.4742,-79.7433,206.7,NC,EDEN,-5,19691001-20240401, 80.2%,51.0,51.0,92.6,51.0,94.9,51.0,Cfa
USC00131363,725450-14990,39.12489612067733,3.5999999999999943,42.2001,-91.5233,252.4,IA,CENTRAL CITY,-6,19551217-20240401, 87.4%,51.0,51.0,76.6,51.0,80.5,51.0,Dfa
USC00278885,726116-94765,46.20372061320121,48.400000000000006,43.9099,-71.8878,216.4,NH,WARREN,-5,19480501-20181101, 80.6%,51.0,51.0,70.5,51.0,71.2,51.0,Dfb
USC00123714,724240-13807,42.71444956879885,29.100000000000023,38.1975,-86.2686,259.1,IN,HARRISON-CRAWFORD S F,-5,19740806-20240416, 83.2%,51.0,51.0,99.5,51.0,99.6,51.0,Dfa
USC00397662,726510-14944,21.15266464793847,53.5,43.7379,-96.6264,485.5,SD,SIOUX FALLS EROS CTR,-6,19740227-20240402, 88.3%,51.0,51.0,100.0,51.0,100.0,50.0,Dfa
USC00337559,724286-93824,38.87205558591144,1.3000000000000114,39.9222,-81.4347,266.7,OH,SENECAVILLE LAKE,-5,19660401-20240301, 71.1%,52.0,50.0,89.7,51.0,92.8,51.0,Dfa
USC00345589,723535-99999,32.49757372103393,80.69999999999999,36.152,-97.6226,317.3,OK,MARSHALL,-6,19751008-20240403, 91.3%,50.0,50.0,98.4,50.0,98.4,48.0,Cfa
USC00367931,725140-14778,47.53246303886968,25.80000000000001,40.8153,-76.8556,133.2,PA,SELINSGROVE CAA AIRPORT,-5,19490701-20230102, 59.6%,51.0,50.0,99.1,51.0,99.3,51.0,Dfa
USC00219170,726587-99999,0.567322399181678,1.5,43.6449,-95.5802,478.5,MN,WORTHINGTON 2 NNE,-6,19710728-20240401, 92.6%,50.0,50.0,89.6,50.0,89.5,50.0,Dfa
USC00237452,724338-13802,37.66025211393427,18.0,38.6308,-90.2708,157.0,MO,ST LOUIS SCIENCE CENTER,-6,19680701-20240405, 65.8%,50.0,50.0,99.8,50.0,100.0,49.0,Dfa
USC00470308,726410-14837,18.263256768834555,59.60000000000002,43.3042,-89.3453,320.6,WI,ARLINGTON,-6,19750605-20240402, 77.0%,50.0,50.0,100.0,50.0,100.0,50.0,Dfa
USC00410569,722555-12935,39.40065349734469,12.8,28.9798,-95.9749,15.8,TX,BAY CITY WATERWORKS,-6,19400601-20240417, 57.1%,51.0,50.0,72.6,50.0,72.2,50.0,Cfa
USC00479176,726626-99999,28.89626028939904,71.10000000000002,45.1452,-88.7416,392.9,WI,WHITE LAKE 1 SE,-6,19580201-20240402, 92.9%,51.0,50.0,70.1,51.0,74.9,50.0,Dfb
USC00416270,723418-13977,39.78527350075703,9.799999999999995,33.4547,-94.4088,105.2,TX,NEW BOSTON,-6,19731016-20220531, 90.2%,50.0,50.0,99.8,50.0,100.0,50.0,Cfa
USC00031152,723419-93992,41.16148663653565,42.6,33.59,-92.8236,35.4,AR,CAMDEN 1,-6,19660427-20240226, 80.0%,50.0,50.0,85.9,50.0,86.9,50.0,Cfa
USC00167738,722485-13944,8.92624666585441,2.799999999999997,32.4219,-93.638,47.2,LA,RED RIVER RESEARCH STATION,-6,19751101-20240301, 86.2%,50.0,50.0,98.6,50.0,98.1,50.0,Cfa
USC00401663,746710-13806,44.19110704480212,54.5,36.3211,-87.2218,119.5,TN,CHEATHAM LOCK & DAM,-6,19710306-20240404, 76.4%,50.0,50.0,95.2,50.0,97.6,50.0,Cfa
USW00093044,723627-23081,44.48212638136278,7.099999999999909,35.1,-108.7833,1962.9,NM,ZUNI CAA,-7,19490301-20240401, 66.9%,50.0,49.0,87.5,50.0,89.4,49.0,BSk
USC00059285,724660-93037,38.45244662092201,25.90000000000009,38.859,-104.2426,1909.9,CO,YODER 2 NW,-7,19760908-20240401, 85.3%,49.0,49.0,100.0,49.0,100.0,49.0,BSk
USC00363321,725101-14712,34.268777669209186,45.400000000000006,40.0962,-75.7513,152.4,PA,GLENMOORE,-5,19710101-20231228, 81.8%,49.0,49.0,91.0,49.0,91.4,48.0,Dfa
USC00046730,723965-93209,6.923262439980559,26.5,35.6277,-120.6855,222.5,CA,PASO ROBLES,-8,19760913-20240401, 94.2%,49.0,49.0,100.0,49.0,100.0,49.0,Csa
USC00234544,724455-14938,13.20089278110294,4.699999999999989,40.2057,-92.5748,295.7,MO,KIRKSVILLE,-6,19710701-20240401, 69.2%,49.0,49.0,99.1,49.0,99.3,48.0,Dfa
USC00344052,723555-99999,44.1041396130052,62.39999999999998,34.5797,-97.351,294.4,OK,HENNEPIN 5 N,-6,19740506-20240415, 93.3%,49.0,49.0,94.4,49.0,96.8,49.0,Cfa
USW00003952,723405-03930,12.99860385495166,77.6,34.8353,-92.2596,171.6,AR,NORTH LITTLE ROCK WFO,-6,19760101-20240301, 97.9%,49.0,49.0,99.3,49.0,99.2,49.0,Cfa
USC00418563,722597-93985,38.39278969145714,34.0,32.9086,-97.6786,321.0,TX,SPRINGTOWN 4 S,-6,19771101-20240209, 88.4%,48.0,48.0,96.9,48.0,97.9,48.0,Cfa
USC00313017,723030-13714,17.80492136289345,36.7,35.0591,-78.8588,29.3,NC,FAYETTEVILLE (PWC),-5,19720701-20240417, 89.0%,48.0,48.0,91.4,48.0,96.1,48.0,Cfa
USC00338539,725366-14825,37.18392124766758,10.0,40.8428,-83.2767,256.0,OH,UPPER SANDUSKY WTR WK,-5,19480801-20240425, 77.2%,48.0,48.0,71.0,49.0,76.0,48.0,Dfa
USC00435768,726116-94765,5.356923569295441,5.699999999999989,43.6027,-72.3621,173.7,VT,NORTH HARTLAND LAKE,-5,19610706-20240401, 88.1%,48.0,48.0,73.1,48.0,81.5,48.0,Dfb
USC00208443,726370-14826,47.09533021272651,42.0,43.3656,-83.5828,192.0,MI,VASSAR,-5,19770701-20240411, 83.9%,48.0,48.0,100.0,48.0,100.0,48.0,Dfa
USC00032148,723417-93988,48.97301557843496,12.299999999999995,33.8885,-91.5316,49.7,AR,DUMAS,-6,19610201-20240313, 81.9%,48.0,48.0,77.2,48.0,75.8,48.0,Cfa
USC00141612,724565-13920,26.8458179627394,16.30000000000001,38.9407,-95.3396,298.7,KS,CLINTON LAKE,-6,19770413-20240202, 89.1%,48.0,48.0,96.4,48.0,97.5,48.0,Dfa
USC00368868,725156-14748,34.46110059966173,89.89999999999998,41.8975,-77.1419,374.9,PA,TIOGA HAMMOND DAM,-5,19750401-20240305, 74.8%,49.0,48.0,98.2,49.0,98.3,49.0,Dfb
USC00130200,725466-99999,42.22420068109196,61.30000000000001,42.021,-93.7743,338.3,IA,AMES 8 WSW,-6,19640906-20240401, 94.3%,48.0,48.0,75.7,48.0,81.6,48.0,Dfa
USC00404561,723346-03811,6.783126114482419,16.5,35.6213,-88.8456,112.5,TN,JACKSON EXP STA,-6,19771207-20240401, 91.1%,48.0,48.0,99.2,48.0,99.2,48.0,Cfa
USC00247894,727730-24153,45.17856301581645,55.700000000000045,46.5137,-114.091,1028.7,MT,STEVENSVILLE,-7,19780914-20240404, 84.6%,47.0,47.0,100.0,47.0,100.0,45.0,BSk
USC00124837,725350-14848,36.22741954942063,11.599999999999994,41.6116,-86.7297,246.6,IN,LAPORTE,-6,19780401-20240407, 81.7%,47.0,47.0,99.8,47.0,99.9,47.0,Dfa
USC00293142,723658-23090,9.677434423617033,38.5,36.6897,-108.3086,1714.5,NM,FARMINGTON AG SCIENCE CNT,-7,19780401-20240408, 91.7%,47.0,47.0,95.9,47.0,95.7,47.0,BWk
USC00326105,727535-14919,25.271544922892343,26.80000000000001,46.7005,-98.5839,428.2,ND,MONTPELIER,-6,19780417-20240404, 93.4%,47.0,47.0,99.9,47.0,100.0,47.0,Dwb
USC00381770,723119-13886,47.63074293726919,65.19999999999999,34.6604,-82.8233,243.8,SC,CLEMSON UNIVERSITY,-5,19490601-20240331, 63.5%,47.0,47.0,88.7,47.0,91.5,47.0,Cfa
USC00205567,726360-14840,35.74388474321742,8.099999999999994,43.461,-86.4177,198.1,MI,MONTAGUE 4 NW,-5,19780614-20240404, 88.1%,47.0,47.0,99.5,47.0,99.0,47.0,Dfb
USC00415897,722580-13960,40.82615639108008,83.1,32.4916,-96.9992,230.1,TX,MIDLOTHIAN,-6,19740117-20211201, 85.9%,47.0,47.0,100.0,47.0,100.0,47.0,Cfa
USC00361139,725200-94823,47.21784603206366,36.19999999999999,40.8415,-79.9163,304.8,PA,BUTLER 2 SW,-5,19670627-20200820, 71.6%,48.0,47.0,99.5,47.0,99.1,47.0,Dfa
USC00030832,723440-13964,48.03341474683891,35.900000000000006,35.0971,-93.9147,171.9,AR,BOONEVILLE 3 SSE,-6,19780406-20230927, 88.3%,46.0,46.0,100.0,46.0,100.0,46.0,Cfa
USW00024027,725744-24027,0.5755774605209165,0.0,41.5947,-109.0529,2060.0,WY,ROCK SPRINGS AP,-7,19480801-20170508, 55.6%,46.0,46.0,100.0,46.0,100.0,45.0,BSk
USC00140326,724506-13986,33.752615261097894,20.100000000000023,37.8894,-98.1785,483.1,KS,ARLINGTON,-6,19781025-20240403, 82.0%,46.0,46.0,95.3,45.0,96.6,45.0,Dfa
USC00134101,725450-14990,34.984472198855904,60.900000000000006,41.6093,-91.5051,195.1,IA,IOWA CITY,-6,19790901-20240403, 89.1%,46.0,46.0,98.7,46.0,99.1,46.0,Dfa
USC00082008,722120-12833,0.63012615114158,1.8000000000000007,29.6333,-83.1053,12.8,FL,CROSS CITY 1 E,-5,19660627-20240410, 87.6%,46.0,46.0,74.4,46.0,80.5,46.0,Cfa
USC00411429,722536-12911,37.28976900986471,83.80000000000001,29.8607,-98.1959,304.8,TX,CANYON DAM,-6,19780801-20240410, 86.7%,46.0,46.0,99.7,46.0,99.3,46.0,Cfa
USC00234919,724457-03938,31.984686130659835,6.699999999999989,37.5545,-91.8835,359.7,MO,LICKING 4N,-6,19790515-20240410, 82.1%,46.0,46.0,98.7,46.0,98.1,46.0,Dfa
USC00161411,722486-13942,31.068360667297853,14.6,32.5372,-92.3598,36.6,LA,CALHOUN 2 N,-6,19680410-20240306, 75.1%,47.0,46.0,87.7,47.0,91.3,47.0,Cfa
USC00310750,723060-13722,37.05837675211787,25.5,35.6547,-79.0709,94.5,NC,B. EVERETT JORDAN DAM,-5,19780701-20240410, 71.5%,47.0,46.0,100.0,46.0,100.0,45.0,Cfa
USC00386114,723106-13744,44.43730252692512,9.5,34.1944,-79.2472,33.5,SC,MULLINS,-5,19660501-20200106, 79.1%,48.0,46.0,86.0,47.0,87.8,47.0,Cfa
USC00314970,723170-13723,39.58235757015042,43.400000000000006,35.8457,-80.2599,231.6,NC,LEXINGTON,-5,19791201-20240411, 83.5%,46.0,46.0,100.0,46.0,100.0,45.0,Cfa
USC00012675,722269-03850,17.59377188200457,11.700000000000005,31.297,-85.89,102.7,AL,ENTERPRISE 4 W,-6,19710401-20240402, 81.3%,46.0,46.0,86.2,47.0,89.2,46.0,Cfa
USC00156012,724250-03860,48.33225820320949,19.69999999999999,38.3423,-83.1038,270.7,KY,OLIVE HILL 5NE,-5,19480801-20240103, 64.8%,47.0,46.0,71.3,46.0,70.7,46.0,Dfa
USC00320189,718620-99999,45.10074222826879,37.79999999999996,48.9975,-103.4877,617.8,ND,AMBROSE 3 N,-6,19771116-20240301, 87.6%,47.0,46.0,97.7,48.0,97.6,47.0,BSk
USC00029158,723723-23184,47.88381434461167,24.40000000000009,34.9281,-112.8097,1551.4,AZ,WALNUT CREEK,-7,19790720-20240301, 84.5%,46.0,46.0,100.0,46.0,100.0,46.0,BSk
USC00043182,725955-24259,37.2852210467389,25.799999999999955,41.601,-122.8478,831.8,CA,FORT JONES RS,-8,19761117-20240401, 89.3%,46.0,45.0,94.1,46.0,96.8,44.0,Csb
USC00413686,722577-99999,48.53420597471223,38.80000000000001,30.7188,-97.3211,169.2,TX,GRANGER DAM,-6,19800601-20240404, 82.7%,45.0,45.0,99.1,45.0,99.1,45.0,Cfa
USC00118020,724350-03816,32.63453907837179,15.200000000000005,37.1644,-88.4311,108.8,IL,SMITHLAND LOCK & DAM,-6,19801001-20240304, 86.9%,45.0,45.0,100.0,45.0,99.9,44.0,Cfa
USC00123082,725335-99999,49.36173370301713,4.199999999999989,40.2986,-86.5066,251.2,IN,FRANKFORT DISPOSAL,-5,19800601-20240402, 83.7%,45.0,45.0,99.5,45.0,99.7,45.0,Dfa
USC00292250,723625-93057,35.67143713474457,98.79999999999995,35.0883,-107.5177,1888.2,NM,CUBERO,-7,19770101-20240402, 96.0%,45.0,45.0,89.5,45.0,93.6,44.0,BWk
USC00220955,723320-93862,45.7948746871952,46.400000000000006,34.6345,-88.5622,149.4,MS,BOONEVILLE,-6,19610223-20190324, 86.4%,47.0,45.0,80.1,46.0,82.4,46.0,Cfa
USC00252433,725533-94957,40.12247095305938,40.30000000000001,40.0411,-96.0499,338.3,NE,DU BOIS 1NNW,-6,19701001-20240312, 89.2%,44.0,44.0,88.6,44.0,93.3,44.0,Dfa
USW00003969,722597-93985,47.04360457501673,66.89999999999998,32.3607,-98.1269,353.9,TX,STEPHENVILLE 9NNE,-6,19400701-20170517, 56.0%,44.0,44.0,83.5,44.0,80.7,42.0,Cfa
USC00226816,722350-03940,30.36113755333629,28.90000000000001,32.3211,-89.7469,118.9,MS,PELAHATCHIE 3 E,-6,19800601-20230930, 83.7%,44.0,44.0,100.0,44.0,100.0,44.0,Cfa
USC00414517,722597-93985,48.49801065733364,42.5,33.2065,-98.1688,329.5,TX,JACKSBORO,-6,19400501-20171121, 61.7%,44.0,44.0,78.5,44.0,79.7,42.0,Cfa
USC00225361,723307-99999,32.92933345517845,3.799999999999997,33.1544,-88.5586,76.2,MS,MACON 3N,-6,19730301-20221212, 79.5%,46.0,44.0,78.2,46.0,84.8,44.0,Cfa
USC00220797,747686-13820,11.69245743610718,4.2,30.4375,-89.0277,5.8,MS,BILOXI 9 WNW,-6,19700415-20130901, 82.4%,44.0,44.0,99.7,44.0,99.6,44.0,Cfa
USC00422726,725720-24127,27.92583291766813,47.0,41.0203,-111.9328,1335.0,UT,FARMINGTON 3 NW,-7,19480801-20240419, 52.7%,45.0,44.0,100.0,45.0,100.0,45.0,Dsa
USC00161899,722317-13970,35.74323389666911,38.0,30.8177,-90.9733,61.0,LA,CLINTON 5 SE,-6,19740701-20170321, 88.4%,44.0,44.0,100.0,44.0,100.0,44.0,Cfa
USC00427064,725724-24174,7.096430225003863,22.90000000000009,40.2458,-111.6508,1392.9,UT,PROVO BYU,-7,19800901-20240402, 95.4%,44.0,44.0,94.8,44.0,94.4,44.0,BSk
USC00213463,727530-14914,48.0904761264184,12.0,47.3522,-96.8332,260.0,MN,HALSTAD,-6,19781011-20230913, 69.1%,44.0,44.0,99.8,43.0,99.5,42.0,Dfb
USC00032489,723405-03930,32.50929953012379,56.0,34.7594,-92.4553,150.0,AR,FERNDALE 6 E,-6,19810504-20240209, 90.8%,44.0,44.0,99.3,44.0,99.4,44.0,Cfa
USC00411246,722595-13911,29.8615949932484,47.30000000000001,32.5066,-97.3444,232.3,TX,BURLESON,-6,19821201-20240328, 96.0%,43.0,43.0,99.2,43.0,99.4,43.0,Cfa
USC00275868,726116-94765,28.64822045575216,66.69999999999999,43.3772,-72.1812,234.7,NH,NEWPORT,-5,19691120-20190501, 81.1%,43.0,43.0,87.7,43.0,91.2,43.0,Dfb
USC00292100,723650-23050,23.25752498398069,86.09999999999991,35.2488,-106.595,1531.9,NM,CORRALES,-7,19821106-20240405, 78.6%,43.0,43.0,100.0,43.0,100.0,40.0,BWk
USC00410690,722517-12932,42.13747960641125,63.8,27.5969,-98.4162,115.8,TX,BENAVIDES #2,-6,19820720-20240409, 85.9%,43.0,43.0,99.8,43.0,99.6,43.0,BSh
USC00010390,723230-03856,21.674109130094447,20.0,34.7752,-86.9508,210.0,AL,ATHENS,-6,19820601-20240304, 84.5%,43.0,43.0,100.0,43.0,100.0,43.0,Cfa
USC00012172,722235-13838,40.00977274312374,1.6,30.2505,-88.0775,2.4,AL,DAUPHIN ISLAND #2,-6,19750801-20240406, 91.9%,46.0,43.0,83.6,46.0,91.5,44.0,
USC00046521,724837-93216,44.38957870666441,18.1,39.5177,-121.553,52.1,CA,OROVILLE,-8,19821101-20240403, 86.3%,43.0,43.0,97.4,43.0,98.0,43.0,Csa
USC00226718,747686-13820,41.45938715477675,6.3,30.3961,-88.478,3.7,MS,PASCAGOULA 3 NE,-6,19730412-20160502, 71.3%,44.0,43.0,99.7,44.0,99.2,44.0,Cfa
USC00419916,723418-13977,23.209763319261377,29.0,33.3038,-94.1584,86.0,TX,WRIGHT PATMAN DM & LK,-6,19811101-20240227, 68.9%,43.0,43.0,99.9,43.0,100.0,42.0,Cfa
USC00394766,726530-99999,31.766970916375413,85.60000000000002,44.0643,-99.4606,444.4,SD,LAKE SHARPE PROJECT,-6,19740501-20240401, 88.8%,43.0,42.0,84.6,42.0,93.4,42.0,BSk
USC00368057,725130-14777,39.39078972719759,80.19999999999999,41.1831,-76.1488,208.8,PA,SHICKSHINNY 3 N,-5,19710601-20170804, 61.3%,44.0,42.0,99.2,43.0,99.3,43.0,Dfb
USC00413507,722576-03902,43.92006489946952,42.60000000000002,30.6763,-97.7208,266.4,TX,GEORGETOWN LAKE,-6,19810801-20220502, 80.1%,42.0,42.0,99.8,42.0,99.6,42.0,Cfa
USC00142938,724585-93997,26.697391615745985,29.399999999999977,38.6366,-98.8722,597.4,KS,GALATIA 4E,-6,19821101-20240402, 85.6%,42.0,42.0,99.8,42.0,99.3,41.0,Dfa
USC00143665,724655-93990,0.9294982127770932,17.200000000000045,39.3618,-99.8279,649.8,KS,HILL CITY 1E,-6,19831001-20240411, 86.6%,42.0,42.0,99.9,42.0,99.6,42.0,BSk
USC00128784,725335-99999,47.57607031542024,24.30000000000001,40.2233,-86.1086,271.3,IN,TIPTON 5 SW,-5,19830501-20240401, 93.8%,42.0,42.0,99.8,42.0,99.6,42.0,Dfa
USC00043357,725985-24267,36.527797029951074,21.0,41.8459,-123.967,118.0,CA,GASQUET RS,-8,19710301-20240401, 81.7%,43.0,42.0,75.4,44.0,77.3,43.0,Csb
USC00099291,722255-93842,47.63809891272764,55.30000000000001,32.8861,-85.1838,175.3,GA,WEST POINT,-5,19830203-20240412, 85.2%,42.0,42.0,99.9,42.0,100.0,42.0,Cfa
USC00112193,725316-99999,7.729190521067498,13.199999999999989,39.8288,-88.9505,194.8,IL,DECATUR WTP,-6,19831101-20240415, 93.2%,42.0,42.0,99.0,42.0,99.2,42.0,Dfa
USC00405210,723346-03811,47.44119640714499,28.599999999999994,35.6502,-88.3904,157.6,TN,LEXINGTON,-6,19820601-20240401, 75.4%,42.0,41.0,99.7,41.0,99.6,41.0,Cfa
USC00117187,724335-99999,31.996883469191143,7.300000000000011,38.0405,-88.9883,138.7,IL,REND LAKE DAM,-6,19720301-20240301, 78.8%,45.0,41.0,74.7,43.0,75.5,42.0,Dfa
USC00142432,724604-93076,9.637654697156597,7.900000000000091,37.0833,-101.85,1096.1,KS,ELKHART 6 NNE,-6,19490101-20240405, 64.5%,44.0,41.0,73.0,42.0,86.3,41.0,BSk
USC00335398,724286-93824,48.53435142722726,4.300000000000011,40.3486,-82.0908,263.7,OH,MOHAWK DAM,-5,19660401-20240301, 59.6%,42.0,41.0,80.3,41.0,85.8,40.0,Dfa
USC00330862,725360-94830,26.96262371516907,0.6999999999999886,41.3831,-83.6111,205.7,OH,BOWLING GREEN WWTP,-5,19830601-20240401, 82.0%,41.0,41.0,99.7,41.0,100.0,41.0,Dfa
USC00154955,724235-13810,12.668745704398471,29.90000000000001,38.2778,-85.7917,134.1,KY,LOUISVILLE MCALPINE,-5,19820701-20221220, 80.1%,41.0,41.0,99.8,41.0,99.8,41.0,Cfa
USC00305435,725145-54746,3.744360531260709,88.10000000000002,41.6667,-74.7833,338.9,NY,MONGAUP VALLEY,-5,19740901-20231101, 71.1%,42.0,41.0,80.3,42.0,81.8,41.0,Dfb
USC00381277,723125-93846,45.80772371500528,73.5,34.0905,-82.5883,161.5,SC,CALHOUN FALLS,-5,19831201-20240404, 95.7%,42.0,41.0,100.0,42.0,99.8,41.0,Cfa
USC00321435,714410-99999,19.79457083064534,21.0,48.8624,-97.7015,274.0,ND,CAVALIER 7NW,-6,19770623-20240302, 84.3%,42.0,40.0,87.4,42.0,89.2,40.0,Dfb
USC00332651,724210-93814,34.907463029376395,86.69999999999999,39.3477,-84.5897,175.3,OH,FAIRFIELD,-5,19851001-20240401, 86.7%,40.0,40.0,100.0,40.0,100.0,40.0,Dfa
USC00419565,723601-23007,47.378878030928526,26.799999999999955,34.8422,-100.2102,621.8,TX,WELLINGTON,-6,19491001-20180628, 70.9%,40.0,40.0,73.8,40.0,81.9,38.0,BSk
USC00031140,723419-93992,31.52934029755552,49.0,33.3053,-92.4866,29.0,AR,CALION LOCK & DAM,-6,19851001-20240306, 78.8%,40.0,40.0,99.8,40.0,100.0,40.0,Cfa
USC00165021,722405-13976,7.900423208319124,2.4000000000000004,30.2191,-92.065,7.6,LA,LAFAYETTE,-6,19520310-20100603, 86.0%,41.0,40.0,73.6,41.0,72.4,41.0,Cfa
USC00448800,723087-93735,39.66647921984786,31.4,36.9839,-77.0078,34.4,VA,WAKEFIELD 1 NW,-5,19850601-20240307, 78.4%,40.0,40.0,89.8,40.0,92.2,40.0,Cfa
USC00340292,723555-99999,19.509271129838563,24.30000000000001,34.1773,-97.1617,256.3,OK,ARDMORE,-6,19570401-20240403, 46.6%,40.0,40.0,94.0,40.0,95.0,40.0,Cfa
USC00117391,725440-14923,9.438821285570777,1.9000000000000057,41.518,-90.5647,173.1,IL,ROCK ISLAND L&D 15,-6,19850726-20240402, 91.9%,40.0,40.0,100.0,40.0,100.0,40.0,Dfa
USC00336616,724275-14894,48.88424763622199,77.5,40.192,-81.2147,286.5,OH,PIEDMONT LAKE,-5,19670201-20231204, 57.2%,39.0,39.0,86.6,39.0,87.6,38.0,Dfa
USC00114805,725320-14842,45.68046799329562,59.400000000000006,41.0187,-89.4153,139.6,IL,LACON,-6,19840221-20240401, 84.2%,39.0,39.0,100.0,39.0,100.0,39.0,Dfa
USC00299569,722687-93033,42.72514762278977,49.700000000000045,32.3779,-103.7987,1039.7,NM,WASTE ISOLT'N PILOT PLT,-7,19860901-20240304, 90.9%,39.0,39.0,99.5,39.0,99.6,38.0,BSk
USC00250435,725533-94957,46.19416277134015,47.0,40.45,-95.8,345.0,NE,AUBURN 5 NNE,-6,19861202-20240304, 85.6%,39.0,39.0,99.9,39.0,99.8,39.0,Dfa
USC00082229,722057-12854,32.15691620506651,5.199999999999999,29.0667,-81.2833,8.8,FL,DELAND 3 NE,-5,19860221-20240325, 87.9%,39.0,39.0,99.7,39.0,99.8,39.0,Cfa
USC00212842,727455-94931,45.379398562754,24.0,46.9728,-92.87,384.0,MN,FLOODWOOD 3 NE,-6,19861001-20240403, 83.6%,39.0,39.0,99.7,39.0,100.0,39.0,Dfb
USC00164696,722487-13935,35.10436236288197,17.6,31.6782,-92.1288,43.6,LA,JENA,-6,19860204-20240306, 79.6%,39.0,39.0,99.6,39.0,99.7,39.0,Cfa
USC00304912,743700-99999,34.77015705927188,56.0,43.7929,-75.4829,263.0,NY,LOWVILLE,-5,19870414-20240402, 88.7%,38.0,38.0,98.6,38.0,98.8,38.0,Dfb
USC00235050,724455-14938,37.85862230501635,41.1,39.7505,-92.5065,249.9,MO,LONG BRANCH RESERVOIR,-6,19860501-20240405, 78.2%,39.0,38.0,99.9,39.0,99.7,38.0,Dfa
USC00332124,724280-14821,44.34822634296092,35.60000000000002,40.3583,-83.0703,281.6,OH,DELAWARE LAKE,-5,19500401-20240401, 42.6%,38.0,38.0,100.0,38.0,100.0,38.0,Dfa
USC00250622,725515-99999,0.0667169559867028,8.699999999999989,40.2994,-96.75,395.3,NE,BEATRICE 1N,-6,19841101-20240301, 89.1%,38.0,38.0,90.4,38.0,91.5,37.0,Dfa
USC00121873,724386-14835,46.78980527566519,73.80000000000001,40.0028,-86.8011,254.8,IN,CRAWFORDSVILLE 6 SE,-5,19880201-20240402, 86.5%,37.0,37.0,99.5,37.0,99.5,37.0,Dfa
USC00221094,722358-93919,40.56879268833787,9.599999999999994,31.5447,-90.458,132.6,MS,BROOKHAVEN CITY,-6,19780901-20140505, 92.2%,37.0,37.0,99.9,37.0,100.0,37.0,Cfa
USC00426757,725750-24126,28.922183052374955,21.0,41.4493,-112.0372,1335.0,UT,PERRY,-7,19871205-20240416, 75.7%,37.0,37.0,99.2,37.0,98.8,35.0,Dsa
USC00425194,724796-94128,13.120716670716966,12.900000000000093,41.6661,-111.8913,1367.9,UT,LOGAN 5 SW EXP FARM,-7,19761027-20240309, 90.6%,41.0,37.0,74.6,41.0,80.6,41.0,BSk
USC00212645,727455-94931,24.1633102864869,32.39999999999998,47.4581,-92.5303,440.4,MN,EVELETH WASTE WATER PLANT,-6,19880823-20240104, 87.4%,37.0,36.0,99.7,37.0,100.0,35.0,Dfb
USC00334992,725210-14895,17.76245589335532,84.5,40.7667,-81.5333,283.5,OH,MASSILLON,-5,19480801-20240401, 34.7%,36.0,36.0,99.7,36.0,99.4,35.0,Dfa
USC00162534,722329-12936,49.68001050309221,7.1,30.0719,-91.0278,9.1,LA,DONALDSONVILLE 4 SW,-6,19880601-20240201, 81.1%,36.0,36.0,87.7,36.0,85.7,36.0,Cfa
USC00360785,725101-14712,6.1477693958664,0.2999999999999971,40.3803,-76.0275,106.7,PA,BLUE MARSH LAKE,-5,19890301-20240304, 68.2%,36.0,36.0,97.4,36.0,98.7,35.0,Dfa
USC00308839,725290-14768,21.58060570305206,35.30000000000001,43.003,-77.4484,199.3,NY,VICTOR 2NW,-5,19480501-20240401, 41.1%,36.0,36.0,100.0,36.0,100.0,36.0,Dfa
USC00354606,726945-99999,47.278841696227104,83.5,44.625,-122.7191,158.5,OR,LACOMB 3 NNE,-8,19870604-20240401, 91.6%,37.0,36.0,92.9,37.0,93.6,37.0,Csb
USC00148293,724507-13981,48.52250936215148,23.69999999999999,37.8488,-94.9765,274.3,KS,UNIONTOWN,-6,19821013-20160803, 87.7%,35.0,35.0,99.9,35.0,99.7,35.0,Dfa
USC00470045,725430-94822,49.8047859315569,11.300000000000011,42.6375,-89.0642,232.3,WI,AFTON - JANESVILLE WWTP,-6,19900701-20240401, 92.0%,35.0,35.0,100.0,35.0,100.0,35.0,Dfa
USC00090044,723200-93801,29.867113866252176,97.39999999999998,34.3407,-84.8347,291.4,GA,ADAIRSVILLE 5 SE,-5,19860918-20240301, 90.0%,35.0,35.0,85.8,35.0,93.3,35.0,Cfa
USC00204320,726350-94860,41.629339751709246,7.800000000000011,43.2036,-85.7776,247.8,MI,KENT CITY 2 SW,-5,19880414-20240301, 77.5%,35.0,35.0,100.0,35.0,100.0,35.0,Dfb
USC00471667,725430-94822,43.66918251425378,60.60000000000002,42.5493,-88.8754,281.6,WI,CLINTON WWTP,-6,19910702-20240401, 82.8%,34.0,34.0,100.0,34.0,100.0,34.0,Dfa
USC00034185,723418-13977,39.54907028213741,11.400000000000006,33.3613,-93.5674,103.6,AR,LEWISVILLE,-6,19910401-20240302, 89.9%,34.0,34.0,99.9,34.0,99.9,34.0,Cfa
USC00115768,999999-14931,44.45303945942245,5.5,40.9443,-90.6381,219.5,IL,MONMOUTH,-6,19910804-20240401, 88.7%,34.0,34.0,100.0,34.0,100.0,34.0,Dfa
USC00048261,722886-23130,30.70464951750301,37.80000000000001,34.2838,-118.8119,201.2,CA,SIMI SANITATION PLANT,-8,19751031-20131107, 89.7%,34.0,34.0,80.9,34.0,78.1,34.0,Csa
USC00308290,726227-94790,25.28380484911798,17.799999999999997,43.8389,-76.2675,76.2,NY,STONY POINT 2E,-5,19780701-20100804, 84.9%,33.0,33.0,98.0,33.0,98.5,33.0,Dfb
USC00148250,724490-13993,16.95045513649048,69.5,39.8281,-95.0875,315.5,KS,TROY 3N,-6,19880322-20240405, 89.4%,33.0,33.0,88.1,33.0,92.3,33.0,Dfa
USC00166314,722486-13942,1.8433480485236828,0.6999999999999993,32.4935,-92.0319,21.3,LA,MONROE DELTA CC,-6,19770705-20091027, 88.7%,33.0,33.0,100.0,33.0,100.0,33.0,Cfa
USC00357056,726835-24230,2.6193253954716016,12.799999999999956,44.2627,-121.1577,927.2,OR,REDMOND 1 SSE,-8,19800401-20120910, 83.5%,33.0,33.0,99.5,33.0,99.5,32.0,BWk
USC00238223,724467-13930,30.65879940738248,59.30000000000001,38.9663,-93.4195,205.7,MO,SWEET SPRINGS,-6,19920701-20240401, 89.8%,33.0,33.0,99.4,33.0,99.8,33.0,Dfa
USC00036393,723445-93993,40.99805303484935,46.69999999999999,35.8236,-93.7672,423.7,AR,ST. PAUL 1 E,-6,19880301-20200402, 81.4%,33.0,33.0,99.9,33.0,99.8,33.0,Cfa
USC00124286,724380-93819,9.780532888988176,27.30000000000001,39.769,-86.185,213.7,IN,INDIANAPOLIS ZOO,-5,19910501-20240405, 87.1%,34.0,33.0,100.0,34.0,100.0,34.0,Dfa
USC00047293,725910-24216,2.8730054625035475,27.200000000000003,40.1622,-122.2202,80.8,CA,RED BLUFF TREATMENT PLANT,-8,19920201-20240401, 88.5%,33.0,33.0,100.0,33.0,100.0,32.0,Csa
USC00116610,724370-93823,36.64285337768031,22.80000000000001,39.6185,-87.6672,197.8,IL,PARIS STP,-6,19930301-20240417, 90.0%,32.0,32.0,100.0,32.0,99.6,32.0,Dfa
USC00080975,722120-12833,41.23421972841468,1.9000000000000004,29.9625,-82.9108,9.1,FL,BRANFORD,-5,19440821-20160307, 53.1%,32.0,32.0,73.9,32.0,75.8,32.0,Cfa
USC00152775,724210-93814,47.596836300230464,12.400000000000006,38.6873,-84.3585,249.6,KY,FALMOUTH,-5,19750201-20240401, 48.8%,32.0,32.0,100.0,32.0,100.0,31.0,Dfa
USC00420820,725755-24101,28.98641015771363,75.20000000000005,40.8547,-111.8902,1383.8,UT,BOUNTIFUL-VAL VERDA,-7,19810601-20140722, 81.9%,32.0,32.0,99.8,31.0,100.0,31.0,BSk
USC00461220,724175-99999,33.3365046346082,72.5,38.9803,-80.2201,443.5,WV,BUCKHANNON,-5,19930601-20240410, 80.4%,31.0,31.0,99.7,31.0,99.5,31.0,Dfa
USC00161287,722487-13935,48.84269060635934,1.6000000000000014,30.9594,-92.1786,24.4,LA,BUNKIE,-6,19770101-20100415, 71.2%,32.0,31.0,99.9,31.0,100.0,30.0,Cfa
USC00203391,726380-94814,32.92852421539949,0.8000000000000114,44.6454,-84.6992,350.8,MI,GRAYLING,-5,19890801-20240401, 82.4%,31.0,31.0,95.4,32.0,98.4,31.0,Dfb
USC00173944,727033-99999,11.160295238219875,30.099999999999994,46.2061,-67.8418,118.9,ME,HOULTON 5N,-5,19850701-20150501, 92.6%,31.0,31.0,99.4,31.0,99.7,31.0,Dfb
USC00434749,725165-99999,25.48510959908672,55.69999999999999,43.3923,-72.6791,295.7,VT,LUDLOW # 2,-5,19731024-20110801, 91.6%,36.0,30.0,73.3,36.0,78.8,33.0,Dfb
USC00084095,722026-12826,17.223584398327528,1.7000000000000002,25.5011,-80.55,2.7,FL,HOMESTEAD GEN AVIATION AP,-5,19950701-20240402, 84.0%,30.0,30.0,99.4,30.0,98.7,30.0,Aw
